series_id,FIPS_Code,fips_code3,bFIPS,Average2007,July2015,DateReturned,DateReturned3moMovingAve,DateReturned3moMovingAve_VALUES,MonthsReturn,2007Ave_pls1,DateReturned3MoMovingAve_pls1,MonthsReturn_pls1,County_Name,_Name,LAT,LON,State,SpotCheck,Rural_urban_continuum_code_2013,Urban_influence_code_2013,Civilian_labor_force_2011,Median_Household_Income_2013,Median_Household_Income_Percent_of_State_Total_2013,Pct_less_than_hs_2009_2013,Pct_HS_Grad_only_2009_2013,Pct_SomeCollege_2009_2013,Pct_college_grad_2009_2013,Net_Mig_2010_2014,MigRate_2010_2014,Total_Business_Establishments_2011,Business_Estab_under_20_emp,Business_Estab_20to99_emp,Business_Estab_100to499_emp,Business_Estab_over500_emp,Stimulus,StimulusPerCapita
LAUCN010030000000003,01003,1003,b01003,3.832,5.6,#N/A,#N/A,#N/A,#N/A,4.832,#N/A,#N/A,"Baldwin County, AL","Baldwin, AL",30.659218,-87.746067,AL,#REF!,3,2,84961,47539,110.8600345,10.92470572,29.16048377,32.16902578,27.74578474,"16,080.00",8.82,"4,624.00","3,190.00",437.00,196.00,801.00,151570284,827
LAUCN010050000000003,01005,1005,b01005,7.48,10.2,#N/A,#N/A,#N/A,#N/A,8.48,#N/A,#N/A,"Barbour County, AL","Barbour, AL",31.870253,-85.405104,AL,#REF!,6,6,9851,30981,72.24709668,26.34295344,32.88919317,27.36465136,13.40320202,-504.00,-1.84,501.00,343.00,40.00,20.00,98.00,16578410,605
LAUCN010070000000003,01007,1007,b01007,4.916,7.1,#N/A,#N/A,#N/A,#N/A,5.916,#N/A,#N/A,"Bibb County, AL","Bibb, AL",33.015893,-87.127148,AL,#REF!,1,1,8928,39781,92.76852759,22.54889179,40.78226858,24.60234681,12.06649283,-461.00,-2.01,285.00,204.00,34.00,17.00,30.00,9082020,397
LAUCN010090000000003,01009,1009,b01009,3.892,5.8,#N/A,#N/A,#N/A,#N/A,4.892,#N/A,#N/A,"Blount County, AL","Blount, AL",33.977358,-86.56644,AL,#REF!,1,1,25104,44392,103.521291,23.00622973,34.65736498,30.24507028,12.09133502,-130.00,-0.23,690.00,526.00,52.00,23.00,89.00,26154707,456
LAUCN010150000000003,01015,1015,b01015,4.764,7.7,#N/A,#N/A,#N/A,#N/A,5.764,#N/A,#N/A,"Calhoun County, AL","Calhoun, AL",33.771706,-85.822513,AL,#REF!,3,2,51230,37898,88.37740777,21.38901267,32.93144058,29.60468521,16.07486154,"-2,391.00",-2.02,"2,333.00","1,467.00",238.00,100.00,528.00,113310253,956
LAUCN010250000000003,01025,1025,b01025,7.464,13.5,#N/A,#N/A,#N/A,#N/A,8.464,#N/A,#N/A,"Clarke County, AL","Clarke, AL",31.685521,-87.818624,AL,#REF!,7,11,8853,34593,80.67021128,21.72979871,42.0500029,25.0420558,11.17814258,-866.00,-3.35,601.00,411.00,48.00,45.00,97.00,34813375,1351
LAUCN010290000000003,01029,1029,b01029,4.336,6.6,#N/A,#N/A,#N/A,#N/A,5.336,#N/A,#N/A,"Cleburne County, AL","Cleburne, AL",33.671964,-85.516126,AL,#REF!,8,4,5935,40407,94.22834756,23.96475771,39.28536466,27.72393539,9.025942242,5.00,0.03,157.00,121.00,13.00,9.00,14.00,9368776,625
LAUCN010310000000003,01031,1031,b01031,4.308,6.6,#N/A,#N/A,#N/A,#N/A,5.308,#N/A,#N/A,"Coffee County, AL","Coffee, AL",31.402258,-85.989602,AL,#REF!,4,5,20738,44666,104.1602537,17.64411912,29.51759414,30.31131493,22.52697181,336.00,0.67,953.00,677.00,90.00,54.00,132.00,28717450,573
LAUCN010330000000003,01033,1033,b01033,5.512,8.6,#N/A,#N/A,#N/A,#N/A,6.512,#N/A,#N/A,"Colbert County, AL","Colbert, AL",34.703112,-87.801457,AL,#REF!,3,2,24374,40032,93.35385476,16.54395271,34.56838994,31.19045734,17.69720001,433.00,0.80,"1,257.00",837.00,119.00,85.00,216.00,38490247,707
LAUCN010390000000003,01039,1039,b01039,4.864,7.4,#N/A,#N/A,#N/A,#N/A,5.864,#N/A,#N/A,"Covington County, AL","Covington, AL",31.243987,-86.448721,AL,#REF!,6,6,16352,35187,82.05540786,21.63776054,34.25756884,29.92925605,14.17541457,301.00,0.80,864.00,623.00,82.00,25.00,134.00,23892376,632
LAUCN010450000000003,01045,1045,b01045,4.66,7,#N/A,#N/A,#N/A,#N/A,5.66,#N/A,#N/A,"Dale County, AL","Dale, AL",31.430654,-85.609476,AL,#REF!,4,5,22015,41805,97.4884567,15.86017448,30.75738823,36.41138648,16.9710508,"-1,607.00",-3.20,815.00,525.00,73.00,60.00,157.00,51124202,1015
LAUCN010610000000003,01061,1061,b01061,4.408,6.5,#N/A,#N/A,#N/A,#N/A,5.408,#N/A,#N/A,"Geneva County, AL","Geneva, AL",31.092393,-85.821011,AL,#REF!,3,2,11472,35378,82.50081619,22.82336653,38.19692209,28.61174716,10.36796422,104.00,0.39,417.00,343.00,24.00,12.00,38.00,16886556,630
LAUCN010630000000003,01063,1063,b01063,7.392,11.8,#N/A,#N/A,#N/A,#N/A,8.392,#N/A,#N/A,"Greene County, AL","Greene, AL",32.844497,-87.9642,AL,#REF!,8,6,3229,25864,60.31435101,23.80714879,39.35162095,24.03990025,12.80133001,-483.00,-5.34,97.00,61.00,13.00,9.00,14.00,10009704,1114
LAUCN010690000000003,01069,1069,b01069,4.088,6.9,#N/A,#N/A,#N/A,#N/A,5.088,#N/A,#N/A,"Houston County, AL","Houston, AL",31.158193,-85.296398,AL,#REF!,3,2,46761,39636,92.43039037,16.11229474,33.97539023,30.26073597,19.65157905,"1,492.00",1.47,"2,746.00","1,740.00",314.00,162.00,530.00,67960416,667
LAUCN010770000000003,01077,1077,b01077,5,7.8,#N/A,#N/A,#N/A,#N/A,6,#N/A,#N/A,"Lauderdale County, AL","Lauderdale, AL",34.904122,-87.650997,AL,#REF!,3,2,44001,43586,101.6417145,16.19712696,34.29473382,28.38602701,21.12211221,"1,059.00",1.14,"1,968.00","1,366.00",183.00,94.00,325.00,70900620,765
LAUCN010790000000003,01079,1079,b01079,5.24,8.3,#N/A,#N/A,#N/A,#N/A,6.24,#N/A,#N/A,"Lawrence County, AL","Lawrence, AL",34.529776,-87.321865,AL,#REF!,3,2,14787,40713,94.94193368,22.85935019,38.89866518,26.29726598,11.94471866,-744.00,-2.17,407.00,296.00,30.00,25.00,56.00,13953094,406
LAUCN010830000000003,01083,1083,b01083,4.004,5.9,#N/A,#N/A,#N/A,#N/A,5.004,#N/A,#N/A,"Limestone County, AL","Limestone, AL",34.810239,-86.981399,AL,#REF!,2,2,38954,50148,116.9441724,18.47915665,30.87528329,27.95137697,22.69418309,"6,491.00",7.84,"1,228.00",878.00,112.00,47.00,191.00,57998760,697
LAUCN010850000000003,01085,1085,b01085,9.14,13.2,#N/A,#N/A,#N/A,#N/A,10.14,#N/A,#N/A,"Lowndes County, AL","Lowndes, AL",32.147888,-86.650586,AL,#REF!,2,2,4243,29734,69.33911665,26.12527115,36.78145336,22.69522777,14.39804772,-828.00,-7.33,114.00,78.00,11.00,6.00,19.00,57256541,5085
LAUCN010890000000003,01089,1089,b01089,3.592,6.1,#N/A,#N/A,#N/A,#N/A,4.592,#N/A,#N/A,"Madison County, AL","Madison, AL",34.764238,-86.55108,AL,#REF!,2,2,171630,58258,135.8565365,9.952768326,21.39648022,30.18263505,38.4681164,"9,254.00",2.76,"7,997.00","4,997.00",822.00,420.00,"1,758.00",296027250,881
LAUCN010950000000003,01095,1095,b01095,4.064,6.2,#N/A,#N/A,#N/A,#N/A,5.064,#N/A,#N/A,"Marshall County, AL","Marshall, AL",34.309564,-86.321668,AL,#REF!,4,5,41043,38399,89.54573014,23.82584903,32.56558828,28.42427169,15.184291,750.00,0.81,"1,834.00","1,233.00",181.00,86.00,334.00,65298048,700
LAUCN010970000000003,01097,1097,b01097,4.816,7.9,#N/A,#N/A,#N/A,#N/A,5.816,#N/A,#N/A,"Mobile County, AL","Mobile, AL",30.684572,-88.196568,AL,#REF!,2,2,193773,42278,98.59148361,16.06310532,32.97467932,30.26032057,20.70189479,"-3,698.00",-0.90,"8,659.00","5,266.00",894.00,502.00,"1,997.00",402076975,973
LAUCN011030000000003,01103,1103,b01103,4.336,6.4,#N/A,#N/A,#N/A,#N/A,5.336,#N/A,#N/A,"Morgan County, AL","Morgan, AL",34.454484,-86.846402,AL,#REF!,3,2,58262,44079,102.791381,18.56564488,31.55310535,29.97305047,19.9081993,-609.00,-0.51,"2,654.00","1,677.00",293.00,131.00,553.00,75520744,631
LAUCN011090000000003,01109,1109,b01109,4.436,7.3,#N/A,#N/A,#N/A,#N/A,5.436,#N/A,#N/A,"Pike County, AL","Pike, AL",31.798651,-85.941604,AL,#REF!,6,5,15431,35944,83.82071732,18.97071043,35.37079352,22.68903199,22.96946406,258.00,0.78,643.00,431.00,61.00,48.00,103.00,82970059,2518
LAUCN011270000000003,01127,1127,b01127,4.988,7.4,#N/A,#N/A,#N/A,#N/A,5.988,#N/A,#N/A,"Walker County, AL","Walker, AL",33.791558,-87.301094,AL,#REF!,1,1,27085,37193,86.73336132,23.6097265,35.31489749,30.59251875,10.48285727,-798.00,-1.19,"1,279.00",873.00,111.00,55.00,240.00,37732755,564
LAUCN011310000000003,01131,1131,b01131,11.712,16.2,#N/A,#N/A,#N/A,#N/A,12.712,#N/A,#N/A,"Wilcox County, AL","Wilcox, AL",31.990085,-87.304907,AL,#REF!,9,10,2983,23184,54.06464251,23.89651954,42.31230831,22.66968929,11.12148286,-549.00,-4.71,201.00,149.00,21.00,11.00,20.00,14607813,1258
LAUCN040010000000003,04001,4001,b04001,10.116,14.8,#N/A,#N/A,#N/A,#N/A,11.116,#N/A,#N/A,"Apache County, AZ","Apache, AZ",35.385084,-109.490172,AZ,#REF!,6,6,23065,30252,62.37011381,25.54959975,32.05742757,32.0290916,10.36388108,"-1,608.00",-2.25,467.00,291.00,62.00,42.00,72.00,321552507,4486
LAUCN040030000000003,04003,4003,b04003,4.928,7.9,#N/A,#N/A,#N/A,#N/A,5.928,#N/A,#N/A,"Cochise County, AZ","Cochise, AZ",31.840129,-109.775163,AZ,#REF!,3,2,55902,45294,93.38198911,14.16984036,24.13467696,39.22236078,22.4731219,"-5,955.00",-4.53,"2,315.00","1,515.00",166.00,165.00,469.00,143085476,1086
LAUCN040050000000003,04005,4005,b04005,4.62,7.2,#N/A,#N/A,#N/A,#N/A,5.62,#N/A,#N/A,"Coconino County, AZ","Coconino, AZ",35.829692,-111.773728,AZ,#REF!,3,2,71731,48732,100.4700643,12.44603492,22.38325077,34.03970811,31.1310062,"-1,134.00",-0.84,"3,529.00","2,492.00",366.00,134.00,537.00,243791739,1811
LAUCN040070000000003,04007,4007,b04007,5.336,8.5,#N/A,#N/A,#N/A,#N/A,6.336,#N/A,#N/A,"Gila County, AZ","Gila, AZ",33.789618,-110.81187,AZ,#REF!,4,3,21178,39868,82.19528286,15.74271315,30.98924508,37.16423339,16.10380839,-120.00,-0.22,"1,017.00",753.00,53.00,62.00,149.00,74628947,1393
LAUCN040150000000003,04015,4015,b04015,6.112,8.7,#N/A,#N/A,#N/A,#N/A,7.112,#N/A,#N/A,"Mohave County, AZ","Mohave, AZ",35.717705,-113.749689,AZ,#REF!,3,2,79608,38560,79.49859805,16.15640361,34.71828448,37.19379118,11.93152073,"5,464.00",2.73,"3,600.00","2,604.00",245.00,167.00,584.00,123482668,617
LAUCN040270000000003,04027,4027,b04027,16.02,26.6,#N/A,#N/A,#N/A,#N/A,17.02,#N/A,#N/A,"Yuma County, AZ","Yuma, AZ",32.773942,-113.910905,AZ,#REF!,3,2,92051,40498,83.49414481,28.07107143,25.32228437,32.35611496,14.25052925,-840.00,-0.43,"2,897.00","1,912.00",295.00,142.00,548.00,203669491,1036
LAUCN050170000000003,05017,5017,b05017,8.28,10.1,#N/A,#N/A,#N/A,#N/A,9.28,#N/A,#N/A,"Chicot County, AR","Chicot, AR",33.267139,-91.297158,AR,#REF!,7,9,4280,28006,68.9718015,25.78213343,42.35456716,19.28634251,12.5769569,-611.00,-5.18,227.00,151.00,27.00,14.00,35.00,26918658,2285
LAUCN050810000000003,05081,5081,b05081,4.052,6.3,#N/A,#N/A,#N/A,#N/A,5.052,#N/A,#N/A,"Little River County, AR","Little River, AR",33.699497,-94.229774,AR,#REF!,3,2,6140,36310,89.42248492,16.60673423,38.96698267,33.86727689,10.55900621,-567.00,-4.31,166.00,115.00,14.00,9.00,28.00,6157204,468
LAUCN050910000000003,05091,5091,b05091,4.264,5.8,#N/A,#N/A,#N/A,#N/A,5.264,#N/A,#N/A,"Miller County, AR","Miller, AR",33.305505,-93.901502,AR,#REF!,3,2,20800,40005,98.52234946,14.89985176,40.17650912,31.01320371,13.91043541,-635.00,-1.46,713.00,469.00,90.00,45.00,109.00,42250166,971
LAUCN051050000000003,05105,5105,b05105,5.2,6.7,#N/A,#N/A,#N/A,#N/A,6.2,#N/A,#N/A,"Perry County, AR","Perry, AR",34.946363,-92.926877,AR,#REF!,2,2,4517,42328,104.2433198,15.39636263,44.78689435,27.90503957,11.91170346,-150.00,-1.44,109.00,83.00,10.00,8.00,8.00,3598664,345
LAUCN051330000000003,05133,5133,b05133,4.1,6.6,#N/A,#N/A,#N/A,#N/A,5.1,#N/A,#N/A,"Sevier County, AR","Sevier, AR",33.994877,-94.243279,AR,#REF!,6,6,6400,33698,82.98977958,33.68932965,32.64041194,25.05006198,8.620196434,-113.00,-0.66,264.00,189.00,28.00,12.00,35.00,12768203,745
LAUCN061070000000003,06107,6107,b06107,10.012,11.7,#N/A,#N/A,#N/A,#N/A,11.012,#N/A,#N/A,"Tulare County, CA","Tulare, CA",36.228824,-118.781061,CA,#REF!,2,2,203695,39657,65.89183351,31.99034622,24.00435521,30.69754096,13.30775762,"-5,743.00",-1.30,"6,109.00","4,283.00",542.00,338.00,946.00,350154916,789
LAUCN080290000000003,08029,8029,b08029,3.812,5.7,#N/A,#N/A,#N/A,#N/A,4.812,#N/A,#N/A,"Delta County, CO","Delta, CO",38.861756,-107.864757,CO,#REF!,6,6,14384,41730,70.798412,12.22851961,36.55406937,32.89050102,18.32691,-987.00,-3.19,853.00,692.00,59.00,28.00,74.00,30893184,1000
LAUCN080430000000003,08043,8043,b08043,5.504,6.5,#N/A,#N/A,#N/A,#N/A,6.504,#N/A,#N/A,"Fremont County, CO","Fremont, CO",38.45517,-105.424958,CO,#REF!,4,5,15887,41412,70.25889858,15.90668671,36.58760648,31.87183342,15.63387339,302.00,0.64,832.00,652.00,69.00,25.00,86.00,23899655,510
LAUCN080450000000003,08045,8045,b08045,2.768,3.9,#N/A,#N/A,#N/A,#N/A,3.768,#N/A,#N/A,"Garfield County, CO","Garfield, CO",39.599352,-107.90978,CO,#REF!,5,8,31341,57364,97.3227919,14.77789816,25.54983749,33.10671723,26.56554713,"-1,237.00",-2.19,"2,428.00","1,956.00",152.00,98.00,222.00,34266716,610
LAUCN080550000000003,08055,8055,b08055,5.552,8.2,#N/A,#N/A,#N/A,#N/A,6.552,#N/A,#N/A,"Huerfano County, CO","Huerfano, CO",37.687815,-104.959928,CO,#REF!,6,6,2655,32418,54.99983034,15.31461762,26.5053243,30.22265247,27.95740561,-64.00,-0.95,163.00,125.00,13.00,9.00,16.00,3154132,473
LAUCN080710000000003,08071,8071,b08071,4.044,6.5,#N/A,#N/A,#N/A,#N/A,5.044,#N/A,#N/A,"Las Animas County, CO","Las Animas, CO",37.318831,-104.04411,CO,#REF!,7,11,6969,38547,65.39818805,15.70224719,30.33707865,37.70599251,16.25468165,"-1,386.00",-8.94,387.00,289.00,36.00,20.00,42.00,12617431,818
LAUCN080770000000003,08077,8077,b08077,3.512,5.9,#N/A,#N/A,#N/A,#N/A,4.512,#N/A,#N/A,"Mesa County, CO","Mesa, CO",39.019492,-108.461837,CO,#REF!,3,2,75397,48108,81.61921889,10.36375836,30.02683963,33.8657205,25.7436815,-710.00,-0.48,"4,529.00","3,344.00",406.00,190.00,589.00,154245608,1054
LAUCN081030000000003,08103,8103,b08103,2.344,5.2,#N/A,#N/A,#N/A,#N/A,3.344,#N/A,#N/A,"Rio Blanco County, CO","Rio Blanco, CO",39.972622,-108.200716,CO,#REF!,9,10,3114,59364,100.7159581,8.701472557,34.11423472,34.11423472,23.07005801,-128.00,-1.92,236.00,184.00,15.00,10.00,27.00,15169524,2291
LAUCN120130000000003,12013,12013,b12013,4.564,6.5,#N/A,#N/A,#N/A,#N/A,5.564,#N/A,#N/A,"Calhoun County, FL","Calhoun, FL",30.388801,-85.197915,FL,#REF!,6,6,5296,33977,73.82933878,26.53631285,39.34694664,26.33403968,7.782700828,-139.00,-0.95,196.00,148.00,17.00,8.00,23.00,9122384,625
LAUCN120390000000003,12039,12039,b12039,5.296,7.2,#N/A,#N/A,#N/A,#N/A,6.296,#N/A,#N/A,"Gadsden County, FL","Gadsden, FL",30.578687,-84.612607,FL,#REF!,2,2,19601,34348,74.63549249,22.79894875,35.40454289,26.85689256,14.93961579,"-1,961.00",-4.11,638.00,465.00,40.00,32.00,101.00,46511257,1001
LAUCN120590000000003,12059,12059,b12059,4.352,6.8,#N/A,#N/A,#N/A,#N/A,5.352,#N/A,#N/A,"Holmes County, FL","Holmes, FL",30.866222,-85.812959,FL,#REF!,6,6,7218,33220,72.18443754,24.54175879,36.23136723,27.2305827,11.99629128,-12.00,-0.06,276.00,232.00,13.00,13.00,18.00,25906634,1305
LAUCN120630000000003,12063,12063,b12063,4.636,6.1,#N/A,#N/A,#N/A,#N/A,5.636,#N/A,#N/A,"Jackson County, FL","Jackson, FL",30.78925,-85.208813,FL,#REF!,6,6,18858,36332,78.94656787,22.03188266,34.63770988,29.09646912,14.23393833,-538.00,-1.08,780.00,519.00,63.00,43.00,155.00,79326207,1596
LAUCN120650000000003,12065,12065,b12065,4.232,6.2,#N/A,#N/A,#N/A,#N/A,5.232,#N/A,#N/A,"Jefferson County, FL","Jefferson, FL",30.424558,-83.890859,FL,#REF!,2,2,5911,39494,85.81734426,18.77838539,33.88636574,30.42914079,16.90610807,-661.00,-4.48,247.00,190.00,16.00,16.00,25.00,11245230,762
LAUCN120730000000003,12073,12073,b12073,3.86,5.3,#N/A,#N/A,#N/A,#N/A,4.86,#N/A,#N/A,"Leon County, FL","Leon, FL",30.45931,-84.2778,FL,#REF!,2,2,149922,46975,102.0729667,8.213246609,19.5920478,27.964164,44.23054159,"2,864.00",1.04,"7,253.00","4,825.00",694.00,351.00,"1,383.00",10688915143,38720
LAUCN120770000000003,12077,12077,b12077,3.548,5.9,#N/A,#N/A,#N/A,#N/A,4.548,#N/A,#N/A,"Liberty County, FL","Liberty, FL",30.259849,-84.86858,FL,#REF!,8,7,2873,36561,79.44416679,24.41101848,41.31931859,21.42080464,12.84885828,-94.00,-1.12,81.00,53.00,11.00,6.00,11.00,6871507,822
LAUCN120860000000003,12086,12086,b12086,3.916,6.1,#N/A,#N/A,#N/A,#N/A,4.916,#N/A,#N/A,"Miami-Dade County, FL","Miami-Dade, FL",25.610494,-80.499045,FL,#REF!,1,1,1255524,41840,90.91501706,21.18065702,28.34256004,24.19408045,26.28270249,"112,470.00",4.50,"74,585.00","60,781.00","4,076.00","1,974.00","7,754.00",2153905118,860
LAUCN121070000000003,12107,12107,b12107,6.132,8,#N/A,#N/A,#N/A,#N/A,7.132,#N/A,#N/A,"Putnam County, FL","Putnam, FL",29.606006,-81.740894,FL,#REF!,4,3,30148,32852,71.38480259,22.50643877,40.17209085,25.95020682,11.37126356,"-1,649.00",-2.22,"1,273.00",958.00,66.00,54.00,195.00,52985747,713
LAUCN121190000000003,12119,12119,b12119,4.612,7.4,#N/A,#N/A,#N/A,#N/A,5.612,#N/A,#N/A,"Sumter County, FL","Sumter, FL",28.714294,-82.074715,FL,#REF!,3,2,26010,52670,114.4477521,12.21843715,32.06456248,30.48178532,25.23521505,"23,294.00",24.93,"1,131.00",795.00,93.00,42.00,201.00,43283335,460
LAUCN121230000000003,12123,12123,b12123,5.48,7,#N/A,#N/A,#N/A,#N/A,6.48,#N/A,#N/A,"Taylor County, FL","Taylor, FL",30.009908,-83.609483,FL,#REF!,6,6,9523,38370,83.37498099,23.53084911,37.06169823,27.78863775,11.61881491,-54.00,-0.24,402.00,281.00,41.00,24.00,56.00,11054065,490
LAUCN121250000000003,12125,12125,b12125,4.02,5.5,#N/A,#N/A,#N/A,#N/A,5.02,#N/A,#N/A,"Union County, FL","Union, FL",30.05428,-82.366918,FL,#REF!,6,4,5320,40841,88.74426892,26.11636094,36.97424495,26.90383546,10.00555864,-322.00,-2.07,134.00,96.00,9.00,12.00,17.00,4873073,314
LAUCN130010000000003,13001,13001,b13001,6.092,8.3,#N/A,#N/A,#N/A,#N/A,7.092,#N/A,#N/A,"Appling County, GA","Appling, GA",31.739712,-82.290103,GA,#REF!,7,9,8869,36915,77.28462263,23.18757662,42.86881896,21.1687781,12.77482632,-78.00,-0.43,382.00,275.00,39.00,14.00,54.00,39506374,2163
LAUCN130070000000003,13007,13007,b13007,5.652,8.6,#N/A,#N/A,#N/A,#N/A,6.652,#N/A,#N/A,"Baker County, GA","Baker, GA",31.31958,-84.454881,GA,#REF!,3,2,1171,37135,77.74521093,20.51875868,44.83557202,23.71468272,10.93098657,-240.00,-6.95,25.00,17.00,1.00,3.00,4.00,1896918,555
LAUCN130110000000003,13011,13011,b13011,3.736,6.2,#N/A,#N/A,#N/A,#N/A,4.736,#N/A,#N/A,"Banks County, GA","Banks, GA",34.351922,-83.498441,GA,#REF!,8,6,8495,42495,88.96681671,24.48779691,41.98024651,21.94106604,11.59089054,-323.00,-1.76,278.00,190.00,14.00,14.00,60.00,14087064,765
LAUCN130190000000003,13019,13019,b13019,5.624,7.6,#N/A,#N/A,#N/A,#N/A,6.624,#N/A,#N/A,"Berrien County, GA","Berrien, GA",31.288652,-83.22787,GA,#REF!,6,6,7870,37903,79.3530828,23.17777431,32.24598096,31.77774309,12.79850164,-758.00,-3.93,278.00,208.00,23.00,13.00,34.00,6751780,350
LAUCN130230000000003,13023,13023,b13023,6.184,9.9,#N/A,#N/A,#N/A,#N/A,7.184,#N/A,#N/A,"Bleckley County, GA","Bleckley, GA",32.435403,-83.331717,GA,#REF!,6,6,5493,40369,84.51585889,20.45512332,39.86778541,24.81566234,14.86142893,-296.00,-2.27,164.00,117.00,15.00,7.00,25.00,36465308,2784
LAUCN130250000000003,13025,13025,b13025,5.408,8.1,#N/A,#N/A,#N/A,#N/A,6.408,#N/A,#N/A,"Brantley County, GA","Brantley, GA",31.197334,-81.982978,GA,#REF!,3,2,7461,36758,76.95593007,23.17275748,45.67275748,24.73421927,6.420265781,-90.00,-0.49,180.00,140.00,21.00,7.00,12.00,10142873,550
LAUCN130270000000003,13027,13027,b13027,4.964,7,#N/A,#N/A,#N/A,#N/A,5.964,#N/A,#N/A,"Brooks County, GA","Brooks, GA",30.822934,-83.581905,GA,#REF!,3,2,7065,34367,71.95017272,22.59108563,36.80414278,29.21213242,11.39263917,"-1,020.00",-6.25,203.00,149.00,16.00,6.00,32.00,9331991,576
LAUCN130290000000003,13029,13029,b13029,4.156,5.9,#N/A,#N/A,#N/A,#N/A,5.156,#N/A,#N/A,"Bryan County, GA","Bryan, GA",32.017969,-81.438543,GA,#REF!,2,2,14714,66066,138.3146656,12.0098905,26.78003734,30.60503608,30.60503608,"2,435.00",8.05,576.00,446.00,36.00,42.00,52.00,27591307,908
LAUCN130450000000003,13045,13045,b13045,5.716,7.3,#N/A,#N/A,#N/A,#N/A,6.716,#N/A,#N/A,"Carroll County, GA","Carroll, GA",33.582237,-85.080527,GA,#REF!,1,1,51922,45493,95.24337904,20.25840625,35.69986246,25.78794885,18.25378245,"1,277.00",1.15,"1,932.00","1,351.00",146.00,58.00,377.00,93666865,846
LAUCN130510000000003,13051,13051,b13051,4.768,6.2,#N/A,#N/A,#N/A,#N/A,5.768,#N/A,#N/A,"Chatham County, GA","Chatham, GA",31.980523,-81.08519,GA,#REF!,2,2,129562,45254,94.74301267,11.28477168,27.59512712,29.86062837,31.25947283,"10,750.00",4.05,"7,065.00","4,411.00",745.00,379.00,"1,530.00",335949734,1264
LAUCN130590000000003,13059,13059,b13059,4.456,6.9,#N/A,#N/A,#N/A,#N/A,5.456,#N/A,#N/A,"Clarke County, GA","Clarke, GA",33.952185,-83.367152,GA,#REF!,3,2,57139,32864,68.80351722,14.90569961,22.14099467,23.45752084,39.49578488,876.00,0.75,"2,931.00","1,953.00",270.00,147.00,561.00,198421480,1701
LAUCN130610000000003,13061,13061,b13061,6.368,12.4,#N/A,#N/A,#N/A,#N/A,7.368,#N/A,#N/A,"Clay County, GA","Clay, GA",31.619831,-84.992583,GA,#REF!,9,12,1064,27102,56.74029101,22.14667314,39.67945605,30.30597377,7.867897037,-83.00,-2.61,41.00,28.00,4.00,4.00,5.00,12186410,3838
LAUCN130630000000003,13063,13063,b13063,6.624,7.9,#N/A,#N/A,#N/A,#N/A,7.624,#N/A,#N/A,"Clayton County, GA","Clayton, GA",33.542686,-84.355573,GA,#REF!,1,1,127005,40606,85.0120381,18.31938791,31.75033921,31.92999648,18.0002764,"-3,270.00",-1.26,"3,914.00","2,257.00",324.00,258.00,"1,075.00",143379284,552
LAUCN130710000000003,13071,13071,b13071,5.2,7.2,#N/A,#N/A,#N/A,#N/A,6.2,#N/A,#N/A,"Colquitt County, GA","Colquitt, GA",31.189758,-83.769741,GA,#REF!,6,5,21241,33095,69.28713493,27.85931875,37.23691498,21.77720853,13.12655774,-462.00,-1.02,860.00,621.00,76.00,28.00,135.00,50656902,1110
LAUCN130910000000003,13091,13091,b13091,5.82,9,#N/A,#N/A,#N/A,#N/A,6.82,#N/A,#N/A,"Dodge County, GA","Dodge, GA",32.160235,-83.156241,GA,#REF!,6,6,8292,33893,70.9578143,19.75036204,42.87290532,22.17778084,15.1989518,-976.00,-4.48,336.00,235.00,38.00,21.00,42.00,20375045,936
LAUCN130930000000003,13093,13093,b13093,5.964,8.3,#N/A,#N/A,#N/A,#N/A,6.964,#N/A,#N/A,"Dooly County, GA","Dooly, GA",32.151995,-83.807167,GA,#REF!,6,6,4790,31620,66.19909976,29.1025641,39.32938856,21.44970414,10.1183432,-730.00,-4.89,162.00,111.00,20.00,9.00,22.00,35593123,2394
LAUCN130950000000003,13095,13095,b13095,6.24,8.7,#N/A,#N/A,#N/A,#N/A,7.24,#N/A,#N/A,"Dougherty County, GA","Dougherty, GA",31.532588,-84.20904,GA,#REF!,3,2,41238,31575,66.10488852,20.06466926,28.55938908,33.53341818,17.84252348,"-4,423.00",-4.68,"2,387.00","1,445.00",237.00,144.00,561.00,118475243,1253
LAUCN130990000000003,13099,13099,b13099,6.1,7.9,#N/A,#N/A,#N/A,#N/A,7.1,#N/A,#N/A,"Early County, GA","Early, GA",31.324191,-84.906723,GA,#REF!,6,6,4445,32357,67.74207055,23.33712337,37.74872086,25.96645821,12.94769756,-613.00,-5.57,215.00,150.00,21.00,7.00,37.00,11885861,1082
LAUCN131010000000003,13101,13101,b13101,3.644,5.8,#N/A,#N/A,#N/A,#N/A,4.644,#N/A,#N/A,"Echols County, GA","Echols, GA",30.7085,-82.836132,GA,#REF!,3,2,1879,34809,72.87553648,25.3101737,42.76261373,26.22001654,5.70719603,-216.00,-5.35,20.00,15.00,1.00,1.00,3.00,1100612,272
LAUCN131030000000003,13103,13103,b13103,4.036,5.7,#N/A,#N/A,#N/A,#N/A,5.036,#N/A,#N/A,"Effingham County, GA","Effingham, GA",32.361711,-81.343337,GA,#REF!,2,2,25621,61062,127.8383754,14.84456344,37.19767961,31.13193515,16.82582181,"1,592.00",3.05,680.00,538.00,35.00,26.00,81.00,30599585,584
LAUCN131070000000003,13107,13107,b13107,6.216,9.3,#N/A,#N/A,#N/A,#N/A,7.216,#N/A,#N/A,"Emanuel County, GA","Emanuel, GA",32.5911,-82.299763,GA,#REF!,7,9,9160,30348,63.53606197,23.46315647,39.32012485,25.63441444,11.58230425,-124.00,-0.55,393.00,286.00,36.00,18.00,53.00,37906817,1673
LAUCN131110000000003,13111,13111,b13111,4.944,6.6,#N/A,#N/A,#N/A,#N/A,5.944,#N/A,#N/A,"Fannin County, GA","Fannin, GA",34.866543,-84.317331,GA,#REF!,8,4,10271,35673,74.68439234,20.978745,40.94266223,23.66240063,14.41619214,471.00,1.99,541.00,421.00,37.00,21.00,62.00,39636811,1675
LAUCN131150000000003,13115,13115,b13115,5.544,7.6,#N/A,#N/A,#N/A,#N/A,6.544,#N/A,#N/A,"Floyd County, GA","Floyd, GA",34.263677,-85.21373,GA,#REF!,3,2,44844,39381,82.44739872,22.06806781,31.23214172,28.56371833,18.13607213,-971.00,-1.01,"1,927.00","1,284.00",163.00,68.00,412.00,85697685,890
LAUCN131230000000003,13123,13123,b13123,4.668,6.4,#N/A,#N/A,#N/A,#N/A,5.668,#N/A,#N/A,"Gilmer County, GA","Gilmer, GA",34.690495,-84.454651,GA,#REF!,6,4,12371,39323,82.3259709,23.535824,32.40511347,27.70290358,16.35615895,186.00,0.66,537.00,414.00,32.00,23.00,68.00,25273792,892
LAUCN131270000000003,13127,13127,b13127,4.292,6.5,#N/A,#N/A,#N/A,#N/A,5.292,#N/A,#N/A,"Glynn County, GA","Glynn, GA",31.212746,-81.496517,GA,#REF!,3,2,38255,43533,91.13995603,13.44947479,28.92253353,31.55871153,26.06928016,"1,586.00",1.99,"2,393.00","1,691.00",214.00,99.00,389.00,83927593,1052
LAUCN131310000000003,13131,13131,b13131,4.968,7,#N/A,#N/A,#N/A,#N/A,5.968,#N/A,#N/A,"Grady County, GA","Grady, GA",30.875891,-84.245066,GA,#REF!,6,6,10843,35212,73.7192505,27.34965246,39.15986703,22.16379571,11.3266848,-139.00,-0.56,407.00,300.00,39.00,13.00,55.00,10492252,419
LAUCN131330000000003,13133,13133,b13133,6.032,7.4,#N/A,#N/A,#N/A,#N/A,7.032,#N/A,#N/A,"Greene County, GA","Greene, GA",33.57674,-83.166613,GA,#REF!,6,4,6376,42842,89.69329007,21.34363853,37.04773229,20.17156446,21.43706472,540.00,3.38,381.00,283.00,28.00,16.00,54.00,19540007,1221
LAUCN131450000000003,13145,13145,b13145,4.1,5.9,#N/A,#N/A,#N/A,#N/A,5.1,#N/A,#N/A,"Harris County, GA","Harris, GA",32.731549,-84.912432,GA,#REF!,2,2,16397,60977,127.6604208,10.83322128,28.71229438,33.14508538,27.30939895,542.00,1.69,377.00,311.00,13.00,8.00,45.00,9177632,285
LAUCN131530000000003,13153,13153,b13153,4.52,6.6,#N/A,#N/A,#N/A,#N/A,5.52,#N/A,#N/A,"Houston County, GA","Houston, GA",32.458381,-83.662856,GA,#REF!,3,2,68330,52297,109.4881189,11.16597329,29.00043792,35.78607401,24.04751478,"4,655.00",3.33,"2,280.00","1,414.00",220.00,116.00,530.00,103687929,737
LAUCN131710000000003,13171,13171,b13171,6.14,8.3,#N/A,#N/A,#N/A,#N/A,7.14,#N/A,#N/A,"Lamar County, GA","Lamar, GA",33.07446,-84.146721,GA,#REF!,1,1,8116,40915,85.6589553,18.14422331,38.60601361,29.02558801,14.22417507,-128.00,-0.70,227.00,168.00,18.00,12.00,29.00,15518507,846
LAUCN131730000000003,13173,13173,b13173,4.712,7.4,#N/A,#N/A,#N/A,#N/A,5.712,#N/A,#N/A,"Lanier County, GA","Lanier, GA",31.038197,-83.063164,GA,#REF!,3,2,3944,35101,73.48686277,23.55077948,29.98335099,34.43317693,12.0326926,100.00,0.99,103.00,78.00,4.00,6.00,15.00,5186741,512
LAUCN131750000000003,13175,13175,b13175,6.028,8.4,#N/A,#N/A,#N/A,#N/A,7.028,#N/A,#N/A,"Laurens County, GA","Laurens, GA",32.39322,-82.926317,GA,#REF!,5,8,20306,33974,71.12739454,20.22192883,43.12209229,21.66163712,14.99434176,"-1,156.00",-2.39,"1,048.00",700.00,117.00,53.00,178.00,42387334,875
LAUCN131770000000003,13177,13177,b13177,4.052,6.1,#N/A,#N/A,#N/A,#N/A,5.052,#N/A,#N/A,"Lee County, GA","Lee, GA",31.818419,-84.146681,GA,#REF!,3,2,14324,63272,132.4651942,16.13043242,29.81932614,33.53046498,20.51977646,108.00,0.38,371.00,272.00,31.00,20.00,48.00,14087134,496
LAUCN131830000000003,13183,13183,b13183,4.036,6.6,#N/A,#N/A,#N/A,#N/A,5.036,#N/A,#N/A,"Long County, GA","Long, GA",31.749563,-81.74287,GA,#REF!,3,2,6367,41147,86.1446666,14.99100315,39.82231219,31.15159694,14.03508772,"2,023.00",14.00,70.00,52.00,7.00,6.00,5.00,4782972,327
LAUCN131850000000003,13185,13185,b13185,4.616,6.9,#N/A,#N/A,#N/A,#N/A,5.616,#N/A,#N/A,"Lowndes County, GA","Lowndes, GA",30.833127,-83.268992,GA,#REF!,3,2,51351,37138,77.75149168,15.97455158,30.49085841,30.44991417,23.08467583,443.00,0.41,"2,725.00","1,756.00",262.00,123.00,584.00,166246418,1515
LAUCN131890000000003,13189,13189,b13189,7.036,9.1,#N/A,#N/A,#N/A,#N/A,8.036,#N/A,#N/A,"McDuffie County, GA","McDuffie, GA",33.482464,-82.473188,GA,#REF!,2,2,9397,37328,78.14927248,25.36180975,36.7219334,24.25881692,13.65743993,-606.00,-2.77,450.00,321.00,28.00,18.00,83.00,18663045,853
LAUCN131910000000003,13191,13191,b13191,4.968,7.3,#N/A,#N/A,#N/A,#N/A,5.968,#N/A,#N/A,"McIntosh County, GA","McIntosh, GA",31.488592,-81.37246,GA,#REF!,3,2,6191,36346,76.09337381,19.51494065,36.18501842,28.52026197,15.77977896,-404.00,-2.82,191.00,127.00,12.00,15.00,37.00,8446500,592
LAUCN131930000000003,13193,13193,b13193,7.812,9.5,#N/A,#N/A,#N/A,#N/A,8.812,#N/A,#N/A,"Macon County, GA","Macon, GA",32.362686,-84.051231,GA,#REF!,6,6,5282,28844,60.38731289,29.49152542,37.98664612,22.46533128,10.05649718,-903.00,-6.13,184.00,140.00,10.00,6.00,28.00,9729526,664
LAUCN131950000000003,13195,13195,b13195,4.42,6,#N/A,#N/A,#N/A,#N/A,5.42,#N/A,#N/A,"Madison County, GA","Madison, GA",34.128526,-83.203737,GA,#REF!,3,2,13196,43611,91.30325552,21.3410804,38.90284757,24.84819933,14.9078727,4.00,0.01,359.00,306.00,16.00,8.00,29.00,20726116,736
LAUCN131970000000003,13197,13197,b13197,5.408,9.7,#N/A,#N/A,#N/A,#N/A,6.408,#N/A,#N/A,"Marion County, GA","Marion, GA",32.359538,-84.529561,GA,#REF!,2,2,3675,34680,72.60546425,24.858002,40.79518877,23.78884063,10.55796859,-49.00,-0.56,71.00,48.00,8.00,2.00,13.00,3923954,448
LAUCN132090000000003,13209,13209,b13209,5.904,9.4,#N/A,#N/A,#N/A,#N/A,6.904,#N/A,#N/A,"Montgomery County, GA","Montgomery, GA",32.172108,-82.533349,GA,#REF!,9,8,3911,37128,77.73055585,17.74166243,45.42068732,21.29676655,15.5408837,-264.00,-2.89,108.00,77.00,11.00,10.00,10.00,7343806,806
LAUCN132130000000003,13213,13213,b13213,5.928,8.1,#N/A,#N/A,#N/A,#N/A,6.928,#N/A,#N/A,"Murray County, GA","Murray, GA",34.797097,-84.73799,GA,#REF!,3,2,17065,40343,84.46142573,30.67240031,36.2236122,23.55355747,9.550430023,-848.00,-2.14,404.00,272.00,35.00,16.00,81.00,33782372,854
LAUCN132150000000003,13215,13215,b13215,5.672,7.9,#N/A,#N/A,#N/A,#N/A,6.672,#N/A,#N/A,"Muscogee County, GA","Muscogee, GA",32.510197,-84.874946,GA,#REF!,2,2,82844,40414,84.61007014,14.61319454,27.93826123,34.84471492,22.6038293,"4,123.00",2.16,"4,314.00","2,586.00",405.00,228.00,"1,095.00",169290387,889
LAUCN132250000000003,13225,13225,b13225,6.216,8.6,#N/A,#N/A,#N/A,#N/A,7.216,#N/A,#N/A,"Peach County, GA","Peach, GA",32.571324,-83.831978,GA,#REF!,3,2,12695,42602,89.19083011,17.271399,32.2780957,31.24923901,19.20126629,"-1,247.00",-4.50,467.00,317.00,35.00,23.00,92.00,37218043,1342
LAUCN132290000000003,13229,13229,b13229,4.624,7,#N/A,#N/A,#N/A,#N/A,5.624,#N/A,#N/A,"Pierce County, GA","Pierce, GA",31.353988,-82.210427,GA,#REF!,6,5,8095,36214,75.81702083,22.35696264,38.87848946,26.91462521,11.84992268,46.00,0.25,313.00,246.00,23.00,16.00,28.00,9919482,527
LAUCN132330000000003,13233,13233,b13233,5.344,7.2,#N/A,#N/A,#N/A,#N/A,6.344,#N/A,#N/A,"Polk County, GA","Polk, GA",33.996015,-85.188338,GA,#REF!,4,3,18676,38730,81.08447608,27.25668369,36.36978071,23.227696,13.14583959,-894.00,-2.16,595.00,424.00,47.00,20.00,104.00,16355035,394
LAUCN132350000000003,13235,13235,b13235,4.616,7.6,#N/A,#N/A,#N/A,#N/A,5.616,#N/A,#N/A,"Pulaski County, GA","Pulaski, GA",32.238794,-83.481855,GA,#REF!,3,2,4489,37012,77.4877002,22.53796595,44.38564197,23.492867,9.583525081,-465.00,-3.88,189.00,131.00,19.00,14.00,25.00,12428430,1036
LAUCN132370000000003,13237,13237,b13237,5.648,8.8,#N/A,#N/A,#N/A,#N/A,6.648,#N/A,#N/A,"Putnam County, GA","Putnam, GA",33.32106,-83.37179,GA,#REF!,6,4,8667,42934,89.88589972,15.45084122,38.68953733,27.19505783,18.66456362,-99.00,-0.47,373.00,282.00,27.00,21.00,43.00,44395934,2094
LAUCN132510000000003,13251,13251,b13251,6.276,9.5,#N/A,#N/A,#N/A,#N/A,7.276,#N/A,#N/A,"Screven County, GA","Screven, GA",32.744751,-81.617585,GA,#REF!,6,6,5770,35087,73.4575526,21.09106081,41.28507354,24.64796078,12.97590487,-628.00,-4.30,221.00,169.00,17.00,10.00,25.00,7270253,501
LAUCN132530000000003,13253,13253,b13253,6.352,8.7,#N/A,#N/A,#N/A,#N/A,7.352,#N/A,#N/A,"Seminole County, GA","Seminole, GA",30.933894,-84.867592,GA,#REF!,6,6,3271,34814,72.8860044,18.78113584,40.86682165,28.16340086,12.18864165,-48.00,-0.55,183.00,138.00,13.00,13.00,19.00,7242480,830
LAUCN132570000000003,13257,13257,b13257,5.492,7,#N/A,#N/A,#N/A,#N/A,6.492,#N/A,#N/A,"Stephens County, GA","Stephens, GA",34.552914,-83.290216,GA,#REF!,7,8,11734,36318,76.03475348,19.62194132,40.65870347,25.49576713,14.22358808,-607.00,-2.32,546.00,389.00,41.00,14.00,102.00,17736632,677
LAUCN132690000000003,13269,13269,b13269,6.628,9.7,#N/A,#N/A,#N/A,#N/A,7.628,#N/A,#N/A,"Taylor County, GA","Taylor, GA",32.554667,-84.251426,GA,#REF!,8,7,3180,30538,63.93384277,23.60194512,39.90969086,26.43278916,10.05557485,-503.00,-5.65,118.00,79.00,14.00,4.00,21.00,26972096,3027
LAUCN132730000000003,13273,13273,b13273,6.256,8.4,#N/A,#N/A,#N/A,#N/A,7.256,#N/A,#N/A,"Terrell County, GA","Terrell, GA",31.777191,-84.439446,GA,#REF!,3,2,3848,31826,66.63037789,34.3812045,33.58702846,23.31237591,8.719391132,-545.00,-5.73,176.00,130.00,10.00,7.00,29.00,10205291,1095
LAUCN132750000000003,13275,13275,b13275,4.908,8.3,#N/A,#N/A,#N/A,#N/A,5.908,#N/A,#N/A,"Thomas County, GA","Thomas, GA",30.864606,-83.91982,GA,#REF!,4,5,18326,38914,81.46969538,18.22361407,35.28118337,28.41484542,18.08035714,-231.00,-0.52,"1,068.00",744.00,100.00,42.00,182.00,25311322,565
LAUCN132790000000003,13279,13279,b13279,5.896,9.2,#N/A,#N/A,#N/A,#N/A,6.896,#N/A,#N/A,"Toombs County, GA","Toombs, GA",32.126698,-82.332071,GA,#REF!,7,8,12425,32311,67.64576573,20.78763127,39.03150525,25.02917153,15.15169195,-420.00,-1.54,682.00,464.00,77.00,25.00,116.00,18402425,674
LAUCN132810000000003,13281,13281,b13281,4.772,8.1,#N/A,#N/A,#N/A,#N/A,5.772,#N/A,#N/A,"Towns County, GA","Towns, GA",34.902529,-83.732264,GA,#REF!,9,12,4351,39854,83.43766356,13.24622086,38.56008199,25.48039969,22.71329746,904.00,8.63,293.00,240.00,13.00,12.00,28.00,10934694,1043
LAUCN132830000000003,13283,13283,b13283,7.092,9.3,#N/A,#N/A,#N/A,#N/A,8.092,#N/A,#N/A,"Treutlen County, GA","Treutlen, GA",32.409586,-82.570882,GA,#REF!,7,9,2988,31917,66.82089396,25.56073729,44.03730846,18.07683766,12.32511659,-154.00,-2.24,85.00,63.00,5.00,10.00,7.00,2975744,433
LAUCN132890000000003,13289,13289,b13289,6.244,10,#N/A,#N/A,#N/A,#N/A,7.244,#N/A,#N/A,"Twiggs County, GA","Twiggs, GA",32.665847,-83.425879,GA,#REF!,3,2,3255,36107,75.59300743,29.73016642,41.5414445,17.93504605,10.79334303,-638.00,-7.07,68.00,54.00,2.00,5.00,7.00,3358002,374
LAUCN133070000000003,13307,13307,b13307,4.816,10.9,#N/A,#N/A,#N/A,#N/A,5.816,#N/A,#N/A,"Webster County, GA","Webster, GA",32.046691,-84.553828,GA,#REF!,8,6,1067,34374,71.9648278,22.46648794,42.94906166,23.43163539,11.15281501,-185.00,-6.60,25.00,19.00,3.00,1.00,2.00,2442899,876
LAUCN133090000000003,13309,13309,b13309,6.06,11.8,#N/A,#N/A,#N/A,#N/A,7.06,#N/A,#N/A,"Wheeler County, GA","Wheeler, GA",32.105268,-82.733865,GA,#REF!,9,9,1980,30779,64.43839632,25.2089374,54.78424015,11.5469896,8.45983285,505.00,6.81,74.00,54.00,8.00,5.00,7.00,8107126,1092
LAUCN133190000000003,13319,13319,b13319,6.108,8.2,#N/A,#N/A,#N/A,#N/A,7.108,#N/A,#N/A,"Wilkinson County, GA","Wilkinson, GA",32.804266,-83.175512,GA,#REF!,8,7,3774,35745,74.83513033,20.28213166,47.50783699,24.01253918,8.197492163,-258.00,-2.70,146.00,107.00,16.00,8.00,15.00,36331035,3808
LAUCN180890000000003,18089,18089,b18089,5.672,6.7,#N/A,#N/A,#N/A,#N/A,6.672,#N/A,#N/A,"Lake County, IN","Lake, IN",41.472247,-87.374337,IN,#REF!,1,1,229399,48341,101.7533889,13.01409645,36.08163466,31.12897625,19.77529264,"-11,412.00",-2.30,"9,840.00","6,671.00","1,021.00",446.00,"1,702.00",348622303,703
LAUCN200610000000003,20061,20061,b20061,4.544,7.6,#N/A,#N/A,#N/A,#N/A,5.544,#N/A,#N/A,"Geary County, KS","Geary, KS",39.002156,-96.768037,KS,#REF!,4,5,13165,41048,80.65707773,9.018458533,28.92179547,41.22576996,20.83397604,"-1,189.00",-3.46,599.00,351.00,54.00,62.00,132.00,67993073,1931
LAUCN201330000000003,20133,20133,b20133,4.496,8.9,#N/A,#N/A,#N/A,#N/A,5.496,#N/A,#N/A,"Neosho County, KS","Neosho, KS",37.564283,-95.315683,KS,#REF!,7,9,7388,41877,82.28601745,10.20426774,33.97774941,39.59511216,16.22287069,-225.00,-1.36,453.00,293.00,57.00,40.00,63.00,9099390,552
LAUCN202050000000003,20205,20205,b20205,4.612,7.7,#N/A,#N/A,#N/A,#N/A,5.612,#N/A,#N/A,"Wilson County, KS","Wilson, KS",37.558515,-95.745175,KS,#REF!,7,10,4270,41073,80.70620137,18.06795052,36.02630343,32.87928605,13.02646,-329.00,-3.50,240.00,179.00,25.00,15.00,21.00,3424766,365
LAUCN210250000000003,21025,21025,b21025,7.124,9.4,#N/A,#N/A,#N/A,#N/A,8.124,#N/A,#N/A,"Breathitt County, KY","Breathitt, KY",37.506632,-83.28304,KY,#REF!,7,12,4405,26869,62.04308772,36.16954144,32.24652924,21.73958772,9.844341607,-381.00,-2.75,226.00,146.00,25.00,14.00,41.00,56422573,4066
LAUCN210530000000003,21053,21053,b21053,5.82,9.8,#N/A,#N/A,#N/A,#N/A,6.82,#N/A,#N/A,"Clinton County, KY","Clinton, KY",36.728865,-85.153426,KY,#REF!,9,12,4276,27443,63.36850856,32.29300271,35.96978766,24.72566624,7.011543395,-80.00,-0.78,189.00,139.00,12.00,17.00,21.00,26099796,2543
LAUCN210710000000003,21071,21071,b21071,6.58,9.1,#N/A,#N/A,#N/A,#N/A,7.58,#N/A,#N/A,"Floyd County, KY","Floyd, KY",37.559878,-82.743361,KY,#REF!,7,11,13705,31229,72.11074422,26.40758986,34.19449006,26.55719759,12.8407225,"-1,417.00",-3.59,815.00,548.00,78.00,69.00,120.00,36187373,917
LAUCN210890000000003,21089,21089,b21089,5.812,7.8,#N/A,#N/A,#N/A,#N/A,6.812,#N/A,#N/A,"Greenup County, KY","Greenup, KY",38.563562,-82.93382,KY,#REF!,2,2,15193,44581,102.9417877,17.1414235,35.40219237,31.75853018,15.69785394,-314.00,-0.85,486.00,331.00,56.00,27.00,72.00,17888548,485
LAUCN210950000000003,21095,21095,b21095,8.912,12,#N/A,#N/A,#N/A,#N/A,9.912,#N/A,#N/A,"Harlan County, KY","Harlan, KY",36.859223,-83.221497,KY,#REF!,7,10,10018,25460,58.78957212,29.02254129,35.95059993,24.3837542,10.64310457,"-1,122.00",-3.83,456.00,293.00,46.00,26.00,91.00,16560473,567
LAUCN211190000000003,21119,21119,b21119,6.808,10.1,#N/A,#N/A,#N/A,#N/A,7.808,#N/A,#N/A,"Knott County, KY","Knott, KY",37.359724,-82.945724,KY,#REF!,9,12,5844,32294,74.56993096,29.5599748,37.16368217,20.24655809,13.02978494,-337.00,-2.06,184.00,140.00,19.00,9.00,16.00,13434019,824
LAUCN211310000000003,21131,21131,b21131,8.48,11.1,#N/A,#N/A,#N/A,#N/A,9.48,#N/A,#N/A,"Leslie County, KY","Leslie, KY",37.087846,-83.388617,KY,#REF!,9,10,3628,29008,66.98224306,36.86559551,33.40984443,22.45600612,7.26855394,-340.00,-3.01,118.00,84.00,10.00,8.00,16.00,14540109,1287
LAUCN211330000000003,21133,21133,b21133,7.156,10.8,#N/A,#N/A,#N/A,#N/A,8.156,#N/A,#N/A,"Letcher County, KY","Letcher, KY",37.118536,-82.861251,KY,#REF!,9,10,8879,31799,73.42692867,25.22209802,36.57115962,26.7047126,11.50202977,"-1,006.00",-4.10,341.00,219.00,32.00,18.00,72.00,27671838,1127
LAUCN240010000000003,24001,24001,b24001,5.36,7,#N/A,#N/A,#N/A,#N/A,6.36,#N/A,#N/A,"Allegany County, MD","Allegany, MD",39.612313,-78.703104,MD,#REF!,3,2,33994,39994,55.17783726,12.6942955,42.06654923,28.427634,16.81152126,"-1,154.00",-1.54,"1,647.00","1,138.00",143.00,106.00,260.00,97552211,1300
LAUCN240030000000003,24003,24003,b24003,3.348,4.8,#N/A,#N/A,#N/A,#N/A,4.348,#N/A,#N/A,"Anne Arundel County, MD","Anne Arundel, MD",38.993579,-76.560484,MD,#REF!,1,1,289393,85685,118.215557,9.253922944,25.37739886,28.30965394,37.05902426,"10,659.00",1.98,"13,370.00","8,990.00","1,294.00",587.00,"2,499.00",823305710,1527
LAUCN240050000000003,24005,24005,b24005,3.936,5.8,#N/A,#N/A,#N/A,#N/A,4.936,#N/A,#N/A,"Baltimore County, MD","Baltimore, MD",39.443167,-76.616569,MD,#REF!,1,1,435812,64624,89.15868767,10.05482446,27.28524075,26.99928647,35.66064832,"13,995.00",1.74,"19,627.00","13,406.00","1,786.00",953.00,"3,482.00",563382585,699
LAUCN240090000000003,24009,24009,b24009,3.104,5.1,#N/A,#N/A,#N/A,#N/A,4.104,#N/A,#N/A,"Calvert County, MD","Calvert, MD",38.52261,-76.529494,MD,#REF!,1,1,47680,91993,126.9184073,7.113501446,32.18834035,30.67803203,30.02012617,551.00,0.62,"1,687.00","1,315.00",149.00,64.00,159.00,74893273,842
LAUCN240130000000003,24013,24013,b24013,3.272,4.6,#N/A,#N/A,#N/A,#N/A,4.272,#N/A,#N/A,"Carroll County, MD","Carroll, MD",39.563318,-77.015353,MD,#REF!,1,1,92911,82073,113.2322508,8.451229916,31.1095905,27.74598322,32.69319636,-209.00,-0.13,"4,173.00","3,190.00",369.00,138.00,476.00,62090891,371
LAUCN240150000000003,24015,24015,b24015,4.42,6.3,#N/A,#N/A,#N/A,#N/A,5.42,#N/A,#N/A,"Cecil County, MD","Cecil, MD",39.562354,-75.941585,MD,#REF!,1,1,52077,64880,89.51187881,12.50593683,35.69371883,29.61588696,22.18445737,172.00,0.17,"1,771.00","1,320.00",139.00,67.00,245.00,93460568,924
LAUCN240170000000003,24017,24017,b24017,3.22,5.5,#N/A,#N/A,#N/A,#N/A,4.22,#N/A,#N/A,"Charles County, MD","Charles, MD",38.472853,-77.015427,MD,#REF!,1,1,78922,87577,120.8258602,8.822801518,31.05304405,33.46704339,26.65711104,"4,254.00",2.90,"2,627.00","1,750.00",213.00,140.00,524.00,80903298,550
LAUCN240190000000003,24019,24019,b24019,6.22,7,#N/A,#N/A,#N/A,#N/A,7.22,#N/A,#N/A,"Dorchester County, MD","Dorchester, MD",38.429196,-76.047433,MD,#REF!,6,5,16533,42542,58.69319279,16.75252154,39.3143154,25.8949829,18.03818017,-171.00,-0.52,736.00,547.00,70.00,39.00,80.00,39222712,1201
LAUCN240210000000003,24021,24021,b24021,3.22,4.7,#N/A,#N/A,#N/A,#N/A,4.22,#N/A,#N/A,"Frederick County, MD","Frederick, MD",39.470429,-77.397624,MD,#REF!,1,1,128599,83489,115.1858392,8.155402661,25.50776886,28.110719,38.22610947,"5,216.00",2.23,"5,730.00","4,030.00",524.00,223.00,953.00,1911472967,8164
LAUCN240230000000003,24023,24023,b24023,4.6,5.9,#N/A,#N/A,#N/A,#N/A,5.6,#N/A,#N/A,"Garrett County, MD","Garrett, MD",39.547299,-79.274619,MD,#REF!,6,7,15775,44404,61.26210645,13.20361691,43.43606495,25.09113289,18.26918525,-350.00,-1.16,907.00,698.00,74.00,63.00,72.00,27974433,931
LAUCN240250000000003,24025,24025,b24025,3.688,5.4,#N/A,#N/A,#N/A,#N/A,4.688,#N/A,#N/A,"Harford County, MD","Harford, MD",39.537429,-76.299789,MD,#REF!,1,1,133919,77453,106.8582545,7.61418576,29.27239422,30.45794421,32.65547581,"2,031.00",0.83,"5,303.00","3,756.00",450.00,220.00,877.00,196674454,802
LAUCN240270000000003,24027,24027,b24027,2.784,4.3,#N/A,#N/A,#N/A,#N/A,3.784,#N/A,#N/A,"Howard County, MD","Howard, MD",39.252264,-76.924406,MD,#REF!,1,1,163990,108503,149.6964764,5.07437327,14.45395165,20.49588963,59.97578545,"14,285.00",4.98,"8,547.00","5,751.00",859.00,372.00,"1,565.00",320598906,1112
LAUCN240290000000003,24029,24029,b24029,4.1,5.5,#N/A,#N/A,#N/A,#N/A,5.1,#N/A,#N/A,"Kent County, MD","Kent, MD",39.241279,-76.125987,MD,#REF!,6,4,10758,55695,76.83976711,13.31857459,33.90701992,23.22359494,29.55081054,-115.00,-0.57,636.00,477.00,60.00,36.00,63.00,21639580,1070
LAUCN240310000000003,24031,24031,b24031,2.88,4.1,#N/A,#N/A,#N/A,#N/A,3.88,#N/A,#N/A,"Montgomery County, MD","Montgomery, MD",39.137381,-77.203063,MD,#REF!,1,1,536635,97873,135.0307663,8.82883733,14.32238526,19.72923719,57.11954022,"28,063.00",2.89,"26,327.00","18,761.00","2,423.00","1,189.00","3,954.00",1520942249,1558
LAUCN240330000000003,24033,24033,b24033,3.94,5.5,#N/A,#N/A,#N/A,#N/A,4.94,#N/A,#N/A,"Prince George's County, MD","Prince George's, MD",38.82588,-76.847272,MD,#REF!,1,1,481902,71682,98.8962777,14.46211892,27.11115951,28.66409747,29.7626241,"13,693.00",1.59,"13,991.00","9,119.00","1,401.00",754.00,"2,717.00",1038372166,1200
LAUCN240350000000003,24035,24035,b24035,3.528,4.7,#N/A,#N/A,#N/A,#N/A,4.528,#N/A,#N/A,"Queen Anne's County, MD","Queen Anne's, MD",39.040693,-76.082405,MD,#REF!,1,1,26616,80143,110.5695207,8.252441773,31.09842224,27.49211119,33.15702479,702.00,1.47,"1,316.00","1,008.00",109.00,47.00,152.00,33229456,694
LAUCN240370000000003,24037,24037,b24037,3.252,5.6,#N/A,#N/A,#N/A,#N/A,4.252,#N/A,#N/A,"St. Mary's County, MD","St. Mary's, MD",38.220289,-76.530384,MD,#REF!,3,2,54280,78274,107.9909495,9.720140294,31.30848602,29.51552108,29.4558526,"2,195.00",2.09,"1,908.00","1,239.00",185.00,150.00,334.00,88223752,834
LAUCN240390000000003,24039,24039,b24039,5.812,7.9,#N/A,#N/A,#N/A,#N/A,6.812,#N/A,#N/A,"Somerset County, MD","Somerset, MD",38.07445,-75.853323,MD,#REF!,2,2,9890,36106,49.81374686,20.39936197,41.61989721,23.74904,14.23170083,-615.00,-2.32,362.00,284.00,17.00,29.00,32.00,29188383,1102
LAUCN240410000000003,24041,24041,b24041,3.748,4.7,#N/A,#N/A,#N/A,#N/A,4.748,#N/A,#N/A,"Talbot County, MD","Talbot, MD",38.748352,-76.17848,MD,#REF!,6,3,19466,57525,79.36453188,10.99022615,28.43333096,27.2775915,33.29885139,311.00,0.82,"1,458.00","1,063.00",151.00,67.00,177.00,48653282,1286
LAUCN240450000000003,24045,24045,b24045,4.496,6.3,#N/A,#N/A,#N/A,#N/A,5.496,#N/A,#N/A,"Wicomico County, MD","Wicomico, MD",38.367116,-75.631964,MD,#REF!,2,2,50545,47536,65.58317927,14.46749256,32.33298121,26.93908256,26.26044368,"1,384.00",1.40,"2,496.00","1,590.00",269.00,183.00,454.00,85706151,867
LAUCN245100000000003,24510,24510,b24510,5.984,8.2,#N/A,#N/A,#N/A,#N/A,6.984,#N/A,#N/A,"Baltimore city, MD","Baltimore city, MD",39.300032,-76.610476,MD,#REF!,1,1,295962,41988,57.9288651,19.82774657,29.59545811,23.79996376,26.77683155,"-9,148.00",-1.47,"12,089.00","8,089.00","1,293.00",652.00,"2,055.00",4793209329,7724
LAUCN280150000000003,28015,28015,b28015,6.656,8.2,#N/A,#N/A,#N/A,#N/A,7.656,#N/A,#N/A,"Carroll County, MS","Carroll, MS",33.440795,-89.918887,MS,#REF!,9,8,3805,37283,97.6224765,21.81189488,38.61687414,27.23374827,12.33748271,-320.00,-3.02,90.00,76.00,6.00,5.00,3.00,2814214,266
LAUCN280210000000003,28021,28021,b28021,10.848,14.4,#N/A,#N/A,#N/A,#N/A,11.848,#N/A,#N/A,"Claiborne County, MS","Claiborne, MS",31.97281,-90.915424,MS,#REF!,8,5,3697,25438,66.60731586,19.12299854,30.65866084,31.65938865,18.55895197,-633.00,-6.60,122.00,78.00,10.00,6.00,28.00,10388920,1087
LAUCN280270000000003,28027,28027,b28027,8.944,11.6,#N/A,#N/A,#N/A,#N/A,9.944,#N/A,#N/A,"Coahoma County, MS","Coahoma, MS",34.22867,-90.603165,MS,#REF!,7,8,10703,27500,72.00649368,23.42522221,26.80020611,32.26845292,17.50611877,"-1,847.00",-7.06,564.00,373.00,50.00,36.00,105.00,41543681,1590
LAUCN280530000000003,28053,28053,b28053,9.216,14.5,#N/A,#N/A,#N/A,#N/A,10.216,#N/A,#N/A,"Humphreys County, MS","Humphreys, MS",33.130996,-90.523421,MS,#REF!,6,7,3434,22599,59.17362729,35.90948651,28.00696258,25.15230635,10.93124456,-776.00,-8.28,157.00,104.00,9.00,14.00,30.00,7207211,772
LAUCN280550000000003,28055,28055,b28055,8.084,17.1,#N/A,#N/A,#N/A,#N/A,9.084,#N/A,#N/A,"Issaquena County, MS","Issaquena, MS",32.755539,-91.003535,MS,#REF!,8,7,510,31254,81.83603467,43.64754098,32.99180328,18.03278689,5.327868852,-39.00,-2.77,10.00,5.00,2.00,1.00,2.00,4563783,3269
LAUCN280590000000003,28059,28059,b28059,5.572,7.5,#N/A,#N/A,#N/A,#N/A,6.572,#N/A,#N/A,"Jackson County, MS","Jackson, MS",30.456005,-88.625101,MS,#REF!,2,2,65674,47813,125.1944175,13.65423141,32.32551844,34.43391629,19.58633386,249.00,0.18,"2,225.00","1,506.00",208.00,123.00,388.00,129420424,926
LAUCN280650000000003,28065,28065,b28065,6.948,10.5,#N/A,#N/A,#N/A,#N/A,7.948,#N/A,#N/A,"Jefferson Davis County, MS","Jefferson Davis, MS",31.565606,-89.826517,MS,#REF!,8,7,4632,27754,72.67157184,22.02316971,36.28329153,27.33787173,14.35566702,-639.00,-5.12,149.00,109.00,7.00,14.00,19.00,9428250,756
LAUCN280690000000003,28069,28069,b28069,7.924,11.9,#N/A,#N/A,#N/A,#N/A,8.924,#N/A,#N/A,"Kemper County, MS","Kemper, MS",32.750136,-88.625631,MS,#REF!,9,8,3920,30849,80.7755754,24.07805998,35.55746879,29.91820921,10.44626202,-275.00,-2.63,122.00,88.00,7.00,12.00,15.00,20268915,1946
LAUCN280830000000003,28083,28083,b28083,8.336,12.2,#N/A,#N/A,#N/A,#N/A,9.336,#N/A,#N/A,"Leflore County, MS","Leflore, MS",33.54979,-90.294934,MS,#REF!,5,8,11645,24704,64.68539708,26.84029383,29.07484461,25.062927,19.02193456,"-1,472.00",-4.55,738.00,455.00,74.00,53.00,156.00,63305926,1960
LAUCN281070000000003,28107,28107,b28107,8.1,9.8,#N/A,#N/A,#N/A,#N/A,9.1,#N/A,#N/A,"Panola County, MS","Panola, MS",34.365205,-89.963065,MS,#REF!,6,4,14732,33129,86.74556833,24.19574082,32.81377435,28.72224739,14.26823743,-720.00,-2.07,636.00,402.00,55.00,42.00,137.00,43699405,1259
LAUCN281190000000003,28119,28119,b28119,8.464,12.3,#N/A,#N/A,#N/A,#N/A,9.464,#N/A,#N/A,"Quitman County, MS","Quitman, MS",34.252833,-90.290171,MS,#REF!,6,4,3124,26100,68.34070854,31.95816386,25.46968817,28.89792756,13.67422041,-584.00,-7.10,115.00,83.00,9.00,7.00,16.00,4368038,533
LAUCN281310000000003,28131,28131,b28131,5.68,7.9,#N/A,#N/A,#N/A,#N/A,6.68,#N/A,#N/A,"Stone County, MS","Stone, MS",30.790184,-89.112297,MS,#REF!,6,6,7047,40294,105.506533,15.5291876,32.20162827,38.63675732,13.63242681,-84.00,-0.47,265.00,181.00,30.00,14.00,40.00,30962977,1731
LAUCN281330000000003,28133,28133,b28133,9.848,11.9,#N/A,#N/A,#N/A,#N/A,10.848,#N/A,#N/A,"Sunflower County, MS","Sunflower, MS",33.605529,-90.59509,MS,#REF!,7,8,9868,28562,74.78725354,29.77751183,27.86813904,29.39128543,12.9630637,"-2,260.00",-7.67,469.00,306.00,39.00,45.00,79.00,36964309,1257
LAUCN281430000000003,28143,28143,b28143,9.088,10.7,#N/A,#N/A,#N/A,#N/A,10.088,#N/A,#N/A,"Tunica County, MS","Tunica, MS",34.652201,-90.37177,MS,#REF!,1,1,5153,30033,78.63894635,23.1703567,30.28905289,31.1500615,15.39052891,-636.00,-5.90,220.00,118.00,20.00,14.00,68.00,10035042,935
LAUCN281510000000003,28151,28151,b28151,8.86,11.5,#N/A,#N/A,#N/A,#N/A,9.86,#N/A,#N/A,"Washington County, MS","Washington, MS",33.273174,-90.944446,MS,#REF!,5,8,21215,28948,75.79796287,24.45285399,28.84578997,27.9722485,18.72910754,"-2,988.00",-5.84,"1,213.00",794.00,99.00,77.00,243.00,112041185,2194
LAUCN281570000000003,28157,28157,b28157,8.164,12.6,#N/A,#N/A,#N/A,#N/A,9.164,#N/A,#N/A,"Wilkinson County, MS","Wilkinson, MS",31.161091,-91.324617,MS,#REF!,8,7,3461,26373,69.05553664,28.14407814,37.56105006,22.52747253,11.76739927,-712.00,-7.21,155.00,115.00,11.00,15.00,14.00,3394156,345
LAUCN281590000000003,28159,28159,b28159,6.984,9.6,#N/A,#N/A,#N/A,#N/A,7.984,#N/A,#N/A,"Winston County, MS","Winston, MS",33.078724,-89.037391,MS,#REF!,7,9,8029,30961,81.06883821,20.5184431,33.72229619,29.92403477,15.83522594,-617.00,-3.21,381.00,264.00,32.00,23.00,62.00,25871609,1348
LAUCN290930000000003,29093,29093,b29093,5.5,8.9,#N/A,#N/A,#N/A,#N/A,6.5,#N/A,#N/A,"Iron County, MO","Iron, MO",37.625971,-90.699587,MO,#REF!,7,10,3569,32994,70.342181,22.6951319,36.38836008,29.9020941,11.01441392,-334.00,-3.14,342.00,285.00,16.00,16.00,25.00,5501055,520
LAUCN291530000000003,29153,29153,b29153,5.652,9.1,#N/A,#N/A,#N/A,#N/A,6.652,#N/A,#N/A,"Ozark County, MO","Ozark, MO",36.64959,-92.458549,MO,#REF!,9,10,3577,30799,65.66250933,17.15631929,43.9578714,26.38580931,12.5,-100.00,-1.03,168.00,144.00,13.00,5.00,6.00,9040281,929
LAUCN320010000000003,32001,32001,b32001,5.108,7.1,#N/A,#N/A,#N/A,#N/A,6.108,#N/A,#N/A,"Churchill County, NV","Churchill, NV",39.53771,-118.264165,NV,#REF!,6,5,11321,50158,97.86926829,10.76290936,34.30639029,38.1332025,16.79749785,"-1,165.00",-4.68,512.00,361.00,42.00,31.00,78.00,30383245,1225
LAUCN320030000000003,32003,32003,b32003,5.524,7,#N/A,#N/A,#N/A,#N/A,6.524,#N/A,#N/A,"Clark County, NV","Clark, NV",36.214236,-115.013819,NV,#REF!,1,1,995532,51071,99.65073171,16.09901061,29.18559215,32.5994032,22.11599404,"64,729.00",3.32,"39,343.00","25,937.00","3,384.00","2,074.00","7,948.00",1279113756,655
LAUCN320150000000003,32015,32015,b32015,3.78,6.7,#N/A,#N/A,#N/A,#N/A,4.78,#N/A,#N/A,"Lander County, NV","Lander, NV",39.90021,-117.04724,NV,#REF!,7,9,3215,69658,135.9180488,18.86947023,34.13435281,34.98088476,12.01529219,-15.00,-0.26,83.00,58.00,8.00,8.00,9.00,4421418,762
LAUCN320170000000003,32017,32017,b32017,4.844,7.1,#N/A,#N/A,#N/A,#N/A,5.844,#N/A,#N/A,"Lincoln County, NV","Lincoln, NV",37.634605,-114.863037,NV,#REF!,8,4,2071,44366,86.56780488,17.34417344,32.21921108,34.14634146,16.29027401,-123.00,-2.30,86.00,68.00,13.00,2.00,3.00,25736216,4800
LAUCN320190000000003,32019,32019,b32019,8.024,9,#N/A,#N/A,#N/A,#N/A,9.024,#N/A,#N/A,"Lyon County, NV","Lyon, NV",39.022213,-119.197425,NV,#REF!,4,5,23026,46526,90.78243902,15.65246788,30.09634888,37.53098941,16.72019382,-357.00,-0.69,729.00,550.00,51.00,28.00,100.00,56976506,1095
LAUCN320210000000003,32021,32021,b32021,6.828,10.5,#N/A,#N/A,#N/A,#N/A,7.828,#N/A,#N/A,"Mineral County, NV","Mineral, NV",38.516647,-118.416279,NV,#REF!,7,11,2230,40496,79.01658537,11.8596094,37.10727427,40.0509482,10.98216813,-184.00,-3.86,63.00,51.00,3.00,4.00,5.00,26485182,5555
LAUCN320290000000003,32029,32029,b32029,5.88,7.1,#N/A,#N/A,#N/A,#N/A,6.88,#N/A,#N/A,"Storey County, NV","Storey, NV",39.438385,-119.524646,NV,#REF!,2,2,1976,59785,116.6536585,6.060606061,30.92145949,41.55844156,21.45949289,-113.00,-2.82,89.00,86.00,2.00,,1.00,2589578,647
LAUCN320330000000003,32033,32033,b32033,4.144,5.7,#N/A,#N/A,#N/A,#N/A,5.144,#N/A,#N/A,"White Pine County, NV","White Pine, NV",39.418234,-114.900605,NV,#REF!,7,11,5101,52588,102.6107317,13.97303957,37.30975504,34.88911436,13.82809103,-87.00,-0.87,204.00,155.00,19.00,13.00,17.00,344913523,34292
LAUCN325100000000003,32510,32510,b32510,5.904,7.2,#N/A,#N/A,#N/A,#N/A,6.904,#N/A,#N/A,"Carson City, NV","Carson City, NV",39.15306,-119.747379,NV,#REF!,3,2,26524,47476,92.63609756,13.61158698,30.2808493,35.96532212,20.1422416,-520.00,-0.94,"2,067.00","1,554.00",164.00,82.00,267.00,1455651056,26358
LAUCN340010000000003,34001,34001,b34001,6.332,9.1,#N/A,#N/A,#N/A,#N/A,7.332,#N/A,#N/A,"Atlantic County, NJ","Atlantic, NJ",39.469354,-74.633758,NJ,#REF!,2,2,139616,51668,73.57598542,15.63973145,33.59564392,26.56808519,24.19653944,"-2,692.00",-0.98,"6,408.00","4,515.00",557.00,291.00,"1,045.00",258490790,941
LAUCN340050000000003,34005,34005,b34005,4.352,5.9,#N/A,#N/A,#N/A,#N/A,5.352,#N/A,#N/A,"Burlington County, NJ","Burlington, NJ",39.875786,-74.663006,NJ,#REF!,1,1,235777,76868,109.4611529,8.075331809,30.31419523,27.00953293,34.60094003,"-1,779.00",-0.40,"10,330.00","7,007.00",864.00,438.00,"2,021.00",259840435,579
LAUCN340070000000003,34007,34007,b34007,5.34,7,#N/A,#N/A,#N/A,#N/A,6.34,#N/A,#N/A,"Camden County, NJ","Camden, NJ",39.802352,-74.961251,NJ,#REF!,1,1,262810,57641,82.08162452,12.85795281,31.48007618,26.59630453,29.06566648,"-10,593.00",-2.06,"11,621.00","8,277.00","1,011.00",506.00,"1,827.00",515517525,1004
LAUCN340110000000003,34011,34011,b34011,7.176,9.3,#N/A,#N/A,#N/A,#N/A,8.176,#N/A,#N/A,"Cumberland County, NJ","Cumberland, NJ",39.328387,-75.121644,NJ,#REF!,3,2,71578,45850,65.29106858,23.03364894,39.72272281,22.94211314,14.30151511,"-2,388.00",-1.52,"2,923.00","2,059.00",288.00,137.00,439.00,163855384,1043
LAUCN340130000000003,34013,34013,b34013,5.868,7.5,#N/A,#N/A,#N/A,#N/A,6.868,#N/A,#N/A,"Essex County, NJ","Essex, NJ",40.7874,-74.246292,NJ,#REF!,1,1,383477,53358,75.98257006,16.48120068,28.99875412,22.49910663,32.02093857,"-7,524.00",-0.96,"18,681.00","14,339.00","1,503.00",619.00,"2,220.00",1362368974,1737
LAUCN340150000000003,34015,34015,b34015,4.792,6.6,#N/A,#N/A,#N/A,#N/A,5.792,#N/A,#N/A,"Gloucester County, NJ","Gloucester, NJ",39.722825,-75.145548,NJ,#REF!,1,1,151892,71137,101.3001253,9.085821476,34.58249992,27.97929341,28.3523852,-90.00,-0.03,"5,780.00","3,989.00",521.00,271.00,999.00,154245706,534
LAUCN340250000000003,34025,34025,b34025,4.224,5.6,#N/A,#N/A,#N/A,#N/A,5.224,#N/A,#N/A,"Monmouth County, NJ","Monmouth, NJ",40.287056,-74.152445,NJ,#REF!,1,1,330034,83424,118.7969925,7.76675891,25.99447463,24.88546651,41.35329995,"-4,559.00",-0.72,"18,625.00","14,376.00","1,442.00",521.00,"2,286.00",286543107,454
LAUCN340290000000003,34029,34029,b34029,5.168,6.4,#N/A,#N/A,#N/A,#N/A,6.168,#N/A,#N/A,"Ocean County, NJ","Ocean, NJ",39.865669,-74.258864,NJ,#REF!,1,1,266155,59888,85.28138528,10.2458237,37.36775466,26.93951496,25.44690669,"5,213.00",0.90,"11,715.00","9,209.00",836.00,342.00,"1,328.00",274410123,475
LAUCN340310000000003,34031,34031,b34031,5.96,7.7,#N/A,#N/A,#N/A,#N/A,6.96,#N/A,#N/A,"Passaic County, NJ","Passaic, NJ",41.03789,-74.29828,NJ,#REF!,1,1,253480,57426,81.77546138,18.09364415,35.06959212,21.21389211,25.62287162,"-7,497.00",-1.49,"11,550.00","9,205.00",869.00,369.00,"1,107.00",360140078,718
LAUCN340330000000003,34033,34033,b34033,5.512,7.7,#N/A,#N/A,#N/A,#N/A,6.512,#N/A,#N/A,"Salem County, NJ","Salem, NJ",39.573828,-75.357356,NJ,#REF!,1,1,32373,58483,83.28064479,13.97306397,38.41485026,27.2550062,20.35707957,"-1,471.00",-2.23,"1,174.00",895.00,102.00,36.00,141.00,57590327,872
LAUCN340350000000003,34035,34035,b34035,3.524,5,#N/A,#N/A,#N/A,#N/A,4.524,#N/A,#N/A,"Somerset County, NJ","Somerset, NJ",40.565522,-74.61993,NJ,#REF!,1,1,174622,96947,138.0539417,6.7812807,22.03045459,20.04733411,51.14093061,"3,642.00",1.13,"9,677.00","7,062.00",822.00,311.00,"1,482.00",116247561,359
LAUCN340390000000003,34039,34039,b34039,5.028,6.5,#N/A,#N/A,#N/A,#N/A,6.028,#N/A,#N/A,"Union County, NJ","Union, NJ",40.659871,-74.308696,NJ,#REF!,1,1,280990,64272,91.52426521,14.66532827,30.07771135,23.46948906,31.78747132,"4,272.00",0.80,"13,497.00","10,272.00","1,136.00",482.00,"1,607.00",373066762,694
LAUCN340410000000003,34041,34041,b34041,4.336,5.7,#N/A,#N/A,#N/A,#N/A,5.336,#N/A,#N/A,"Warren County, NJ","Warren, NJ",40.853524,-75.009542,NJ,#REF!,2,2,58689,68011,96.84865573,10.33982149,35.05484461,24.98790192,29.61743198,"-1,789.00",-1.65,"2,467.00","1,904.00",143.00,105.00,315.00,58745128,540
LAUCN350010000000003,35001,35001,b35001,3.948,6.4,#N/A,#N/A,#N/A,#N/A,4.948,#N/A,#N/A,"Bernalillo County, NM","Bernalillo, NM",35.054002,-106.669064,NM,#REF!,2,2,324049,48053,109.1468678,12.56754551,23.74224813,31.61855371,32.07165264,-426.00,-0.06,"15,756.00","10,187.00","1,592.00",848.00,"3,129.00",1326185597,1995
LAUCN350030000000003,35003,35003,b35003,5.112,6.5,#N/A,#N/A,#N/A,#N/A,6.112,#N/A,#N/A,"Catron County, NM","Catron, NM",33.901858,-108.392088,NM,#REF!,9,10,1351,32644,74.1470949,11.94471866,31.95129977,37.61105627,18.4929253,-104.00,-2.79,61.00,50.00,5.00,2.00,4.00,3010812,807
LAUCN350050000000003,35005,35005,b35005,4.116,7.2,#N/A,#N/A,#N/A,#N/A,5.116,#N/A,#N/A,"Chaves County, NM","Chaves, NM",33.361604,-104.469837,NM,#REF!,5,8,27492,41388,94.00808613,22.26073703,26.77926101,32.59827421,18.36172776,"-1,008.00",-1.54,"1,419.00",973.00,135.00,80.00,231.00,35096957,534
LAUCN350060000000003,35006,35006,b35006,4.412,8.8,#N/A,#N/A,#N/A,#N/A,5.412,#N/A,#N/A,"Cibola County, NM","Cibola, NM",34.93205,-108.000374,NM,#REF!,6,5,9134,36307,82.46717849,20.09654331,38.99461799,30.46662598,10.44221273,-628.00,-2.31,339.00,204.00,26.00,32.00,77.00,69203027,2540
LAUCN350070000000003,35007,35007,b35007,3.952,5.7,#N/A,#N/A,#N/A,#N/A,4.952,#N/A,#N/A,"Colfax County, NM","Colfax, NM",36.612962,-104.640126,NM,#REF!,7,11,6483,37152,84.38649889,13.401222,33.62525458,33.18737271,19.78615071,"-1,029.00",-7.48,472.00,352.00,55.00,18.00,47.00,11613192,846
LAUCN350090000000003,35009,35009,b35009,2.988,5.3,#N/A,#N/A,#N/A,#N/A,3.988,#N/A,#N/A,"Curry County, NM","Curry, NM",34.572984,-103.346055,NM,#REF!,5,8,21533,39186,89.00649616,18.47782258,23.85416667,37.24126344,20.42674731,183.00,0.38,"1,069.00",711.00,98.00,49.00,211.00,83939553,1715
LAUCN350130000000003,35013,35013,b35013,4.452,8,#N/A,#N/A,#N/A,#N/A,5.452,#N/A,#N/A,"Dona Ana County, NM","Dona Ana, NM",32.350912,-106.832182,NM,#REF!,3,2,93419,36831,83.65738427,22.45127823,22.01819581,28.88961157,26.64091439,"-2,428.00",-1.16,"3,630.00","2,425.00",378.00,206.00,621.00,266168573,1264
LAUCN350170000000003,35017,35017,b35017,4.368,7.1,#N/A,#N/A,#N/A,#N/A,5.368,#N/A,#N/A,"Grant County, NM","Grant, NM",32.732087,-108.381504,NM,#REF!,7,8,12776,39220,89.08372325,16.29414611,27.94388002,31.54329947,24.21867441,-324.00,-1.10,654.00,494.00,54.00,38.00,68.00,20297419,690
LAUCN350230000000003,35023,35023,b35023,3.644,6.6,#N/A,#N/A,#N/A,#N/A,4.644,#N/A,#N/A,"Hidalgo County, NM","Hidalgo, NM",31.898052,-108.751929,NM,#REF!,9,9,2207,32993,74.9398083,22.03755002,33.14866113,30.71714374,14.09664512,-402.00,-8.21,90.00,57.00,10.00,11.00,12.00,21005604,4327
LAUCN350250000000003,35025,35025,b35025,2.652,6.3,#N/A,#N/A,#N/A,#N/A,3.652,#N/A,#N/A,"Lea County, NM","Lea, NM",32.795687,-103.413271,NM,#REF!,5,8,27159,53556,121.6462999,28.71778091,28.89397906,29.06766009,13.32057994,"2,606.00",4.03,"1,589.00",986.00,197.00,111.00,295.00,42734847,661
LAUCN350270000000003,35027,35027,b35027,3.304,5.8,#N/A,#N/A,#N/A,#N/A,4.304,#N/A,#N/A,"Lincoln County, NM","Lincoln, NM",33.740941,-105.449083,NM,#REF!,7,9,9380,40756,92.57257075,14.04082701,27.93116985,34.4739597,23.55404344,-800.00,-3.90,708.00,577.00,43.00,16.00,72.00,30463082,1486
LAUCN350290000000003,35029,35029,b35029,11.2,15.1,#N/A,#N/A,#N/A,#N/A,12.2,#N/A,#N/A,"Luna County, NM","Luna, NM",32.184523,-107.747191,NM,#REF!,6,5,10931,28040,63.68963794,31.47000496,31.58155677,23.16559246,13.78284581,-895.00,-3.57,410.00,286.00,32.00,41.00,51.00,18121779,721
LAUCN350310000000003,35031,35031,b35031,5.064,11.3,#N/A,#N/A,#N/A,#N/A,6.064,#N/A,#N/A,"McKinley County, NM","McKinley, NM",35.583878,-108.253266,NM,#REF!,5,8,25069,27790,63.12179167,27.01197908,32.85931211,28.88235436,11.24635446,-574.00,-0.80,992.00,599.00,107.00,73.00,213.00,123216035,1716
LAUCN350330000000003,35033,35033,b35033,8.236,9.8,#N/A,#N/A,#N/A,#N/A,9.236,#N/A,#N/A,"Mora County, NM","Mora, NM",35.982841,-104.921898,NM,#REF!,9,10,2223,29263,66.46754191,15.86442609,44.37482199,30.21931074,9.541441185,-282.00,-5.78,48.00,35.00,8.00,4.00,1.00,16365016,3347
LAUCN350350000000003,35035,35035,b35035,4.088,6.9,#N/A,#N/A,#N/A,#N/A,5.088,#N/A,#N/A,"Otero County, NM","Otero, NM",32.588776,-105.781079,NM,#REF!,4,5,24975,41960,95.3073184,16.28932029,29.20420059,37.8727299,16.63374922,-468.00,-0.73,"1,003.00",697.00,82.00,59.00,165.00,79528944,1237
LAUCN350370000000003,35037,35037,b35037,4.712,7.4,#N/A,#N/A,#N/A,#N/A,5.712,#N/A,#N/A,"Quay County, NM","Quay, NM",35.107018,-103.548071,NM,#REF!,7,11,3542,30496,69.26815972,18.49038306,39.08194602,29.19023759,13.23743333,-540.00,-5.97,238.00,160.00,24.00,14.00,40.00,25603828,2820
LAUCN350390000000003,35039,35039,b35039,5.096,8.4,#N/A,#N/A,#N/A,#N/A,6.096,#N/A,#N/A,"Rio Arriba County, NM","Rio Arriba, NM",36.509669,-106.693983,NM,#REF!,4,5,17314,36716,83.39617499,20.76019042,30.41877417,32.38619458,16.43484082,"-1,256.00",-3.12,593.00,446.00,39.00,47.00,61.00,81129949,2011
LAUCN350410000000003,35041,35041,b35041,2.972,6.6,#N/A,#N/A,#N/A,#N/A,3.972,#N/A,#N/A,"Roosevelt County, NM","Roosevelt, NM",34.021457,-103.482725,NM,#REF!,7,8,8312,35322,80.22986417,19.63938483,25.83524836,33.47180484,21.05356196,-817.00,-4.12,342.00,246.00,34.00,17.00,45.00,38689180,1930
LAUCN350430000000003,35043,35043,b35043,4.728,7.4,#N/A,#N/A,#N/A,#N/A,5.728,#N/A,#N/A,"Sandoval County, NM","Sandoval, NM",35.685071,-106.882619,NM,#REF!,2,2,60327,56190,127.6291282,9.18531985,27.07987729,35.39938643,28.33541643,"3,294.00",2.50,"1,598.00","1,128.00",114.00,73.00,283.00,102942432,778
LAUCN350450000000003,35045,35045,b35045,3.64,7.9,#N/A,#N/A,#N/A,#N/A,4.64,#N/A,#N/A,"San Juan County, NM","San Juan, NM",36.511624,-108.324578,NM,#REF!,3,2,55096,44417,100.8881116,18.39639277,32.5066754,33.86064789,15.23628394,"-10,339.00",-7.95,"2,833.00","1,871.00",293.00,149.00,520.00,181825389,1397
LAUCN350470000000003,35047,35047,b35047,4.552,8.3,#N/A,#N/A,#N/A,#N/A,5.552,#N/A,#N/A,"San Miguel County, NM","San Miguel, NM",35.476859,-104.803519,NM,#REF!,6,5,11351,31222,70.9171853,16.08042759,32.41028251,31.94706032,19.56222957,"-1,478.00",-5.03,444.00,309.00,40.00,29.00,66.00,29057012,989
LAUCN350490000000003,35049,35049,b35049,3.36,5.9,#N/A,#N/A,#N/A,#N/A,4.36,#N/A,#N/A,"Santa Fe County, NM","Santa Fe, NM",35.514324,-105.965771,NM,#REF!,3,2,73231,51697,117.423795,12.96285643,21.24489444,26.10692439,39.68532474,"2,416.00",1.68,"4,714.00","3,637.00",374.00,155.00,548.00,1440148799,9959
LAUCN350510000000003,35051,35051,b35051,3.788,9,#N/A,#N/A,#N/A,#N/A,4.788,#N/A,#N/A,"Sierra County, NM","Sierra, NM",33.119461,-107.188153,NM,#REF!,6,6,3848,29680,67.41470949,15.95052777,35.3449195,27.62554643,21.07900629,-84.00,-0.70,223.00,161.00,21.00,14.00,27.00,17965601,1494
LAUCN350530000000003,35053,35053,b35053,3.372,8.4,#N/A,#N/A,#N/A,#N/A,4.372,#N/A,#N/A,"Socorro County, NM","Socorro, NM",33.991658,-106.939136,NM,#REF!,6,6,6813,32090,72.88874756,21.2835685,32.64451525,26.66363223,19.40828402,-828.00,-4.64,243.00,160.00,23.00,19.00,41.00,23258627,1303
LAUCN350550000000003,35055,35055,b35055,5.156,9.6,#N/A,#N/A,#N/A,#N/A,6.156,#N/A,#N/A,"Taos County, NM","Taos, NM",36.576529,-105.637986,NM,#REF!,7,8,15302,33021,75.00340708,12.51817087,25.09448852,32.85708352,29.53025709,-70.00,-0.21,"1,121.00",939.00,82.00,30.00,70.00,121112030,3675
LAUCN350570000000003,35057,35057,b35057,5.064,9.6,#N/A,#N/A,#N/A,#N/A,6.064,#N/A,#N/A,"Torrance County, NM","Torrance, NM",34.554979,-105.890558,NM,#REF!,2,2,5600,35046,79.60296189,19.29108875,33.71407851,32.24548998,14.74934276,-866.00,-5.29,230.00,174.00,18.00,8.00,30.00,9969387,609
LAUCN350590000000003,35059,35059,b35059,2.8,5.3,#N/A,#N/A,#N/A,#N/A,3.8,#N/A,#N/A,"Union County, NM","Union, NM",36.488085,-103.475723,NM,#REF!,9,11,1685,37902,86.0900377,22.72291467,36.68903803,23.61776926,16.97027804,-259.00,-5.69,123.00,91.00,10.00,7.00,15.00,35993471,7926
LAUCN350610000000003,35061,35061,b35061,4.488,8,#N/A,#N/A,#N/A,#N/A,5.488,#N/A,#N/A,"Valencia County, NM","Valencia, NM",34.71684,-106.806582,NM,#REF!,2,2,30444,41412,94.06259937,19.26075133,30.43811059,33.7314936,16.56964448,"-2,051.00",-2.68,882.00,609.00,77.00,50.00,146.00,44673353,582
LAUCN360130000000003,36013,36013,b36013,4.992,6.2,#N/A,#N/A,#N/A,#N/A,5.992,#N/A,#N/A,"Chautauqua County, NY","Chautauqua, NY",42.304216,-79.407595,NY,#REF!,4,3,61703,40468,70.68028993,12.57191633,34.97544591,31.78507688,20.66756089,"-2,638.00",-1.96,"2,924.00","2,079.00",267.00,126.00,452.00,99558591,739
LAUCN360850000000003,36085,36085,b36085,4.816,5.9,#N/A,#N/A,#N/A,#N/A,5.816,#N/A,#N/A,"Richmond County, NY","Richmond, NY",40.561263,-74.1399,NY,#REF!,1,1,216332,68621,119.8515414,12.00442884,32.17705306,26.09525787,29.72326023,"-3,249.00",-0.69,"8,604.00","6,953.00",476.00,274.00,901.00,378404885,806
LAUCN370190000000003,37019,37019,b37019,5.4,7.2,#N/A,#N/A,#N/A,#N/A,6.4,#N/A,#N/A,"Brunswick County, NC","Brunswick, NC",34.038754,-78.227765,NC,#REF!,2,2,47013,47799,104.0329953,13.74123692,27.60491693,33.52540094,25.12844521,"11,545.00",10.75,"2,223.00","1,682.00",182.00,77.00,282.00,102673695,951
LAUCN370510000000003,37051,37051,b37051,5.68,8.2,#N/A,#N/A,#N/A,#N/A,6.68,#N/A,#N/A,"Cumberland County, NC","Cumberland, NC",35.050192,-78.828719,NC,#REF!,2,2,132521,44038,95.847299,10.75987904,26.75054621,39.75613874,22.73343601,"-7,943.00",-2.49,"5,613.00","3,472.00",607.00,267.00,"1,267.00",341186236,1065
LAUCN370530000000003,37053,37053,b37053,3.732,5.6,#N/A,#N/A,#N/A,#N/A,4.732,#N/A,#N/A,"Currituck County, NC","Currituck, NC",36.372174,-75.941224,NC,#REF!,1,1,12337,57577,125.3144996,15.00540411,34.22601177,32.37060166,18.39798247,"1,343.00",5.70,574.00,455.00,36.00,25.00,58.00,7766398,328
LAUCN370750000000003,37075,37075,b37075,8.836,11.7,#N/A,#N/A,#N/A,#N/A,9.836,#N/A,#N/A,"Graham County, NC","Graham, NC",35.348364,-83.830915,NC,#REF!,9,12,3618,33553,73.02703173,21.41188251,33.74499332,30.49065421,14.35246996,-170.00,-1.92,161.00,120.00,15.00,6.00,20.00,17917305,2019
LAUCN370930000000003,37093,37093,b37093,5.348,8.7,#N/A,#N/A,#N/A,#N/A,6.348,#N/A,#N/A,"Hoke County, NC","Hoke, NC",35.017233,-79.241964,NC,#REF!,2,2,19431,43987,95.73629913,16.04566302,28.71681564,38.00341468,17.23410666,"1,815.00",3.87,405.00,293.00,31.00,18.00,63.00,18310709,386
LAUCN371390000000003,37139,37139,b37139,5.868,8,#N/A,#N/A,#N/A,#N/A,6.868,#N/A,#N/A,"Pasquotank County, NC","Pasquotank, NC",36.265184,-76.260696,NC,#REF!,4,3,18293,40094,87.2633091,16.27227911,28.50587789,35.08911642,20.13272658,"-1,223.00",-3.01,952.00,623.00,100.00,33.00,196.00,44196630,1085
LAUCN400230000000003,40023,40023,b40023,5.216,8,#N/A,#N/A,#N/A,#N/A,6.216,#N/A,#N/A,"Choctaw County, OK","Choctaw, OK",34.027645,-95.554208,OK,#REF!,7,9,6025,30972,67.73685592,19.51790768,40.35327413,26.12471943,14.00409876,-40.00,-0.26,251.00,161.00,26.00,17.00,47.00,12495712,821
LAUCN400610000000003,40061,40061,b40061,3.9,8.4,#N/A,#N/A,#N/A,#N/A,4.9,#N/A,#N/A,"Haskell County, OK","Haskell, OK",35.232294,-95.109578,OK,#REF!,6,6,4674,35045,76.64465051,22.04294835,38.2124202,28.29947766,11.4451538,141.00,1.10,223.00,171.00,23.00,5.00,24.00,19966216,1565
LAUCN400690000000003,40069,40069,b40069,4.3,7.3,#N/A,#N/A,#N/A,#N/A,5.3,#N/A,#N/A,"Johnston County, OK","Johnston, OK",34.313455,-96.654254,OK,#REF!,9,9,3710,35171,76.92021695,19.20240371,32.05408358,31.02977329,17.71373942,227.00,2.07,170.00,125.00,13.00,11.00,21.00,18867287,1718
LAUCN400710000000003,40071,40071,b40071,3.872,5.7,#N/A,#N/A,#N/A,#N/A,4.872,#N/A,#N/A,"Kay County, OK","Kay, OK",36.814885,-97.143862,OK,#REF!,5,8,20635,41098,89.88277491,13.63979394,34.32752568,32.53601076,19.49666962,"-1,395.00",-3.00,"1,105.00",744.00,142.00,57.00,162.00,60714802,1307
LAUCN400770000000003,40077,40077,b40077,4.672,9,#N/A,#N/A,#N/A,#N/A,5.672,#N/A,#N/A,"Latimer County, OK","Latimer, OK",34.875137,-95.272262,OK,#REF!,7,9,4440,36177,79.12037442,15.98400221,33.98151979,36.21569439,13.81878362,-519.00,-4.65,178.00,121.00,15.00,11.00,31.00,17269012,1550
LAUCN400910000000003,40091,40091,b40091,5.128,9.1,#N/A,#N/A,#N/A,#N/A,6.128,#N/A,#N/A,"McIntosh County, OK","McIntosh, OK",35.369108,-95.671787,OK,#REF!,6,6,7387,38094,83.312921,18.55705154,38.05929553,30.42975656,12.95389637,268.00,1.32,343.00,259.00,32.00,21.00,31.00,14491937,715
LAUCN401210000000003,40121,40121,b40121,3.552,5.9,#N/A,#N/A,#N/A,#N/A,4.552,#N/A,#N/A,"Pittsburg County, OK","Pittsburg, OK",34.92554,-95.74813,OK,#REF!,5,8,19042,41105,89.89808416,16.67925716,36.62889518,31.42587347,15.26597419,-925.00,-2.02,954.00,617.00,92.00,61.00,184.00,48139251,1050
LAUCN401270000000003,40127,40127,b40127,4.868,8.1,#N/A,#N/A,#N/A,#N/A,5.868,#N/A,#N/A,"Pushmataha County, OK","Pushmataha, OK",34.377899,-95.408082,OK,#REF!,9,12,4949,32352,70.75496457,19.19381006,39.74790965,29.41470111,11.64357918,-319.00,-2.76,180.00,129.00,22.00,12.00,17.00,19037161,1645
LAUCN401330000000003,40133,40133,b40133,5,7.3,#N/A,#N/A,#N/A,#N/A,6,#N/A,#N/A,"Seminole County, OK","Seminole, OK",35.158366,-96.602857,OK,#REF!,7,9,9973,34731,75.95792144,17.73496579,36.86832313,31.34077542,14.05593566,-87.00,-0.34,463.00,322.00,51.00,25.00,65.00,32211844,1265
LAUCN461130000000003,46113,46113,b46113,8.076,16.3,#N/A,#N/A,#N/A,#N/A,9.076,#N/A,#N/A,"Shannon County, SD","Shannon, SD",43.33363,-102.561699,SD,#REF!,6,6,3728,28512,57.95121951,21.20172954,29.70031311,37.33412852,11.76382884,-221.00,-1.63,62.00,39.00,11.00,8.00,4.00,106181334,7782
LAUCN470130000000003,47013,47013,b47013,6.5,8.6,#N/A,#N/A,#N/A,#N/A,7.5,#N/A,#N/A,"Campbell County, TN","Campbell, TN",36.401592,-84.159249,TN,#REF!,2,2,16142,32325,73.02114394,29.56582389,41.51002616,19.44202267,9.482127289,-291.00,-0.71,558.00,385.00,39.00,37.00,97.00,33553105,824
LAUCN470390000000003,47039,47039,b47039,6.964,8.4,#N/A,#N/A,#N/A,#N/A,7.964,#N/A,#N/A,"Decatur County, TN","Decatur, TN",35.603136,-88.110292,TN,#REF!,9,12,5336,36213,81.80401193,21.1889698,41.3035693,23.34964785,14.15781306,219.00,1.86,243.00,188.00,19.00,11.00,25.00,10035679,855
LAUCN470410000000003,47041,47041,b47041,5.512,8.2,#N/A,#N/A,#N/A,#N/A,6.512,#N/A,#N/A,"DeKalb County, TN","DeKalb, TN",35.986471,-85.834914,TN,#REF!,6,4,8228,37392,84.46733532,24.38874837,41.35050203,20.93967962,13.32106998,573.00,3.06,300.00,224.00,20.00,20.00,36.00,10195408,544
LAUCN470450000000003,47045,47045,b47045,6.204,8.1,#N/A,#N/A,#N/A,#N/A,7.204,#N/A,#N/A,"Dyer County, TN","Dyer, TN",36.054196,-89.398306,TN,#REF!,5,8,17726,40158,90.7156411,16.38041827,40.99778011,24.50831483,18.11348678,-684.00,-1.78,781.00,514.00,73.00,50.00,144.00,38789146,1011
LAUCN470670000000003,47067,47067,b47067,6.892,12.9,#N/A,#N/A,#N/A,#N/A,7.892,#N/A,#N/A,"Hancock County, TN","Hancock, TN",36.521419,-83.227453,TN,#REF!,8,7,2432,26000,58.73317069,27.36318408,43.01409619,20.58457711,9.03814262,-62.00,-0.91,57.00,32.00,4.00,4.00,17.00,6461648,946
LAUCN470830000000003,47083,47083,b47083,6.692,9.5,#N/A,#N/A,#N/A,#N/A,7.692,#N/A,#N/A,"Houston County, TN","Houston, TN",36.285782,-87.705598,TN,#REF!,8,4,3571,37743,85.26023313,19.56184233,46.8345696,23.8571675,9.746420562,-96.00,-1.14,102.00,77.00,9.00,6.00,10.00,6676010,791
LAUCN470950000000003,47095,47095,b47095,6.724,8.8,#N/A,#N/A,#N/A,#N/A,7.724,#N/A,#N/A,"Lake County, TN","Lake, TN",36.333905,-89.485536,TN,#REF!,9,9,2201,28391,64.13436342,29.37773883,43.54075372,20.07011394,7.011393514,-91.00,-1.16,77.00,54.00,7.00,4.00,12.00,11056039,1413
LAUCN471310000000003,47131,47131,b47131,6.252,9.6,#N/A,#N/A,#N/A,#N/A,7.252,#N/A,#N/A,"Obion County, TN","Obion, TN",36.358171,-89.149879,TN,#REF!,7,8,15308,34469,77.86437156,20.38329911,40.33766826,25.08783938,14.19119325,-707.00,-2.22,695.00,454.00,76.00,52.00,113.00,16390731,515
LAUCN471450000000003,47145,47145,b47145,5.112,6.9,#N/A,#N/A,#N/A,#N/A,6.112,#N/A,#N/A,"Roane County, TN","Roane, TN",35.847249,-84.523942,TN,#REF!,2,2,24463,42037,94.96024216,16.26062177,37.26798963,29.12227556,17.34911303,-550.00,-1.02,725.00,504.00,54.00,58.00,109.00,34008651,629
LAUCN471710000000003,47171,47171,b47171,6.264,8.2,#N/A,#N/A,#N/A,#N/A,7.264,#N/A,#N/A,"Unicoi County, TN","Unicoi, TN",36.100216,-82.418265,TN,#REF!,3,2,7911,36568,82.6059456,23.91304348,39.33283358,23.86056972,12.89355322,25.00,0.14,248.00,178.00,11.00,17.00,42.00,15696323,859
LAUCN471730000000003,47173,47173,b47173,5.32,7.4,#N/A,#N/A,#N/A,#N/A,6.32,#N/A,#N/A,"Union County, TN","Union, TN",36.28414,-83.836088,TN,#REF!,2,2,7849,35255,79.63992048,26.92131747,45.6389143,19.2284233,8.211344922,-184.00,-0.96,196.00,157.00,5.00,11.00,23.00,15392062,807
LAUCN471750000000003,47175,47175,b47175,7.068,9.1,#N/A,#N/A,#N/A,#N/A,8.068,#N/A,#N/A,"Van Buren County, TN","Van Buren, TN",35.699234,-85.458409,TN,#REF!,9,10,2300,37393,84.46959429,20.52996533,53.56612184,15.55225359,10.35165924,66.00,1.19,44.00,37.00,2.00,2.00,3.00,2414212,435
LAUCN480470000000003,48047,48047,b48047,5.264,10.4,#N/A,#N/A,#N/A,#N/A,6.264,#N/A,#N/A,"Brooks County, TX","Brooks, TX",27.034994,-98.215276,TX,#REF!,7,9,2687,27644,53.45554395,36.77361454,30.82791115,21.60646175,10.79201256,-230.00,-3.18,128.00,70.00,8.00,9.00,41.00,69208164,9611
LAUCN480830000000003,48083,48083,b48083,3.744,5.8,#N/A,#N/A,#N/A,#N/A,4.744,#N/A,#N/A,"Coleman County, TX","Coleman, TX",31.914205,-99.346622,TX,#REF!,6,6,3393,33014,63.83957922,17.73192417,39.89263546,27.36118101,15.01425935,-367.00,-4.13,208.00,167.00,11.00,8.00,22.00,13519950,1520
LAUCN481610000000003,48161,48161,b48161,3.784,5.3,#N/A,#N/A,#N/A,#N/A,4.784,#N/A,#N/A,"Freestone County, TX","Freestone, TX",31.70126,-96.144487,TX,#REF!,7,9,8063,44408,85.87229764,21.22118471,34.44703823,32.59410563,11.73767143,-100.00,-0.50,344.00,227.00,35.00,16.00,66.00,10858768,548
LAUCN481970000000003,48197,48197,b48197,3.532,5.7,#N/A,#N/A,#N/A,#N/A,4.532,#N/A,#N/A,"Hardeman County, TX","Hardeman, TX",34.289904,-99.745697,TX,#REF!,9,9,1870,36726,71.01751943,19.81551076,36.62453024,24.94021182,18.61974718,-231.00,-5.58,81.00,62.00,5.00,4.00,10.00,2418692,583
LAUCN482470000000003,48247,48247,b48247,3.744,7.2,#N/A,#N/A,#N/A,#N/A,4.744,#N/A,#N/A,"Jim Hogg County, TX","Jim Hogg, TX",27.041212,-98.700127,TX,#REF!,6,6,2325,35854,69.33132227,33.90700483,33.24275362,21.98067633,10.86956522,-216.00,-4.08,98.00,59.00,11.00,5.00,23.00,3343386,630
LAUCN483430000000003,48343,48343,b48343,5.552,9.1,#N/A,#N/A,#N/A,#N/A,6.552,#N/A,#N/A,"Morris County, TX","Morris, TX",33.116466,-94.731265,TX,#REF!,6,6,5808,36366,70.32138299,17.95881625,34.85990773,34.09474513,13.08653089,-201.00,-1.55,232.00,156.00,35.00,12.00,29.00,6464097,500
LAUCN483850000000003,48385,48385,b48385,3.804,5.1,#N/A,#N/A,#N/A,#N/A,4.804,#N/A,#N/A,"Real County, TX","Real, TX",29.830097,-99.812549,TX,#REF!,9,10,1133,34556,66.82136365,23.39653086,29.48769665,27.63210972,19.48366277,142.00,4.29,81.00,72.00,6.00,2.00,1.00,1043827,315
LAUCN484050000000003,48405,48405,b48405,5.74,9.4,#N/A,#N/A,#N/A,#N/A,6.74,#N/A,#N/A,"San Augustine County, TX","San Augustine, TX",31.382449,-94.16318,TX,#REF!,9,10,3149,32140,62.14951464,22.80950134,38.2255781,26.60059777,12.36432279,-120.00,-1.35,141.00,102.00,19.00,5.00,15.00,4712131,534
LAUCN484350000000003,48435,48435,b48435,2.032,5.1,#N/A,#N/A,#N/A,#N/A,3.032,#N/A,#N/A,"Sutton County, TX","Sutton, TX",30.51768,-100.50527,TX,#REF!,7,11,1942,59098,114.2785319,23.07392996,30.15564202,28.91050584,17.85992218,-268.00,-6.49,144.00,95.00,11.00,7.00,31.00,1413713,346
LAUCN484490000000003,48449,48449,b48449,3.964,6.4,#N/A,#N/A,#N/A,#N/A,4.964,#N/A,#N/A,"Titus County, TX","Titus, TX",33.214599,-94.966783,TX,#REF!,7,8,13704,40501,78.31728352,27.85513873,26.91468357,31.38314455,13.84703315,-825.00,-2.55,643.00,419.00,68.00,29.00,127.00,27539320,848
LAUCN484890000000003,48489,48489,b48489,8.408,13,#N/A,#N/A,#N/A,#N/A,9.408,#N/A,#N/A,"Willacy County, TX","Willacy, TX",26.480381,-97.583256,TX,#REF!,6,5,7714,28945,55.97130371,37.81661976,31.96563472,21.37461117,8.84313435,-942.00,-4.26,201.00,125.00,21.00,13.00,42.00,106953175,4821
LAUCN490310000000003,49031,49031,b49031,2.58,6,#N/A,#N/A,#N/A,#N/A,3.58,#N/A,#N/A,"Piute County, UT","Piute, UT",38.335881,-112.129375,UT,#REF!,9,12,529,37897,63.46311647,11.33217993,39.53287197,32.09342561,17.04152249,-92.00,-5.91,21.00,19.00,,2.00,,2061330,1321
LAUCN510030000000003,51003,51003,b51003,2.588,4.2,#N/A,#N/A,#N/A,#N/A,3.588,#N/A,#N/A,"Albemarle County, VA","Albemarle, VA",38.024184,-78.553506,VA,#REF!,3,2,52193,70032,111.6136744,8.560235649,18.05200437,21.22190822,52.16585176,"3,931.00",3.97,"2,446.00","1,694.00",208.00,105.00,439.00,25257087,255
LAUCN510070000000003,51007,51007,b51007,3.588,5.1,#N/A,#N/A,#N/A,#N/A,4.588,#N/A,#N/A,"Amelia County, VA","Amelia, VA",37.331927,-77.977462,VA,#REF!,1,1,6265,52055,82.96278588,21.08120084,36.37974964,28.50337875,14.03567077,85.00,0.67,271.00,220.00,21.00,10.00,20.00,4442563,349
LAUCN510150000000003,51015,51015,b51015,3.108,4.3,#N/A,#N/A,#N/A,#N/A,4.108,#N/A,#N/A,"Augusta County, VA","Augusta, VA",38.171911,-79.147557,VA,#REF!,3,2,37452,54834,87.39182405,15.77104352,41.5248623,22.85400617,19.85008802,236.00,0.32,"1,373.00","1,024.00",111.00,57.00,181.00,38679610,525
LAUCN510190000000003,51019,51019,b51019,3.312,4.7,#N/A,#N/A,#N/A,#N/A,4.312,#N/A,#N/A,"Bedford County, VA","Bedford, VA",37.312223,-79.527078,VA,#REF!,2,2,38843,56888,90.66539166,12.40038833,32.58767849,30.04126047,24.97067271,"2,085.00",2.78,"1,366.00","1,121.00",88.00,51.00,106.00,33531596,488
LAUCN510210000000003,51021,51021,b51021,4.24,6.3,#N/A,#N/A,#N/A,#N/A,5.24,#N/A,#N/A,"Bland County, VA","Bland, VA",37.130612,-81.125853,VA,#REF!,8,7,2861,41939,66.84038569,16.58887592,39.75106962,28.97705173,14.68300272,-35.00,-0.51,79.00,50.00,8.00,6.00,15.00,2827729,415
LAUCN510230000000003,51023,51023,b51023,2.936,4.5,#N/A,#N/A,#N/A,#N/A,3.936,#N/A,#N/A,"Botetourt County, VA","Botetourt, VA",37.565481,-79.797553,VA,#REF!,2,2,17740,61005,97.22687067,9.752400202,33.92285666,31.41317164,24.9115715,206.00,0.62,727.00,545.00,47.00,41.00,94.00,48592480,1465
LAUCN510250000000003,51025,51025,b51025,5.672,7.4,#N/A,#N/A,#N/A,#N/A,6.672,#N/A,#N/A,"Brunswick County, VA","Brunswick, VA",36.764204,-77.861483,VA,#REF!,6,4,6823,37800,60.24384413,28.66535174,32.90598291,26.19165023,12.23701512,-739.00,-4.24,267.00,209.00,22.00,12.00,24.00,14402092,828
LAUCN510270000000003,51027,51027,b51027,4.948,11.6,#N/A,#N/A,#N/A,#N/A,5.948,#N/A,#N/A,"Buchanan County, VA","Buchanan, VA",37.26812,-82.038151,VA,#REF!,9,10,8474,31621,50.39604749,31.83917108,34.73927244,25.15485978,8.2666967,-701.00,-2.91,453.00,330.00,34.00,26.00,63.00,8391126,349
LAUCN510290000000003,51029,51029,b51029,4.156,6.2,#N/A,#N/A,#N/A,#N/A,5.156,#N/A,#N/A,"Buckingham County, VA","Buckingham, VA",37.573928,-78.529169,VA,#REF!,3,2,6598,39538,63.01378596,29.06660263,36.97566443,22.06211976,11.89561319,-292.00,-1.70,250.00,196.00,22.00,17.00,15.00,23323960,1362
LAUCN510310000000003,51031,51031,b51031,3.688,5,#N/A,#N/A,#N/A,#N/A,4.688,#N/A,#N/A,"Campbell County, VA","Campbell, VA",37.210151,-79.095428,VA,#REF!,2,2,27625,47982,76.47143199,16.24776997,36.42302445,30.2392696,17.08993598,101.00,0.18,"1,130.00",831.00,99.00,56.00,144.00,32225065,587
LAUCN510330000000003,51033,51033,b51033,4.228,5.4,#N/A,#N/A,#N/A,#N/A,5.228,#N/A,#N/A,"Caroline County, VA","Caroline, VA",38.030319,-77.352348,VA,#REF!,1,1,14480,55760,88.86763886,19.10336366,37.37859115,26.75084347,16.76720172,575.00,2.01,377.00,286.00,20.00,21.00,50.00,19373988,677
LAUCN510410000000003,51041,51041,b51041,3.12,4.8,#N/A,#N/A,#N/A,#N/A,4.12,#N/A,#N/A,"Chesterfield County, VA","Chesterfield, VA",37.378434,-77.585847,VA,#REF!,1,1,171641,67454,107.5049805,9.906470065,24.31683206,29.48023604,36.29646184,"9,306.00",2.94,"6,658.00","4,417.00",637.00,276.00,"1,328.00",133717913,422
LAUCN510450000000003,51045,51045,b51045,3.848,5.7,#N/A,#N/A,#N/A,#N/A,4.848,#N/A,#N/A,"Craig County, VA","Craig, VA",37.473603,-80.231051,VA,#REF!,2,2,2482,45527,72.55876962,10.29331885,42.8299837,32.31939163,14.55730581,73.00,1.41,55.00,41.00,8.00,1.00,5.00,2346761,451
LAUCN510490000000003,51049,51049,b51049,3.952,5.6,#N/A,#N/A,#N/A,#N/A,4.952,#N/A,#N/A,"Cumberland County, VA","Cumberland, VA",37.520189,-78.252836,VA,#REF!,8,4,4563,41799,66.61726034,23.06782917,39.20496527,23.71804345,14.00916211,-266.00,-2.65,146.00,122.00,8.00,7.00,9.00,5250200,522
LAUCN510510000000003,51051,51051,b51051,5.46,10.6,#N/A,#N/A,#N/A,#N/A,6.46,#N/A,#N/A,"Dickenson County, VA","Dickenson, VA",37.137064,-82.34923,VA,#REF!,9,8,5454,33386,53.20902064,27.63006802,35.48273121,26.37576186,10.51143892,-420.00,-2.64,223.00,156.00,14.00,13.00,40.00,50762975,3193
LAUCN510530000000003,51053,51053,b51053,3.968,5.8,#N/A,#N/A,#N/A,#N/A,4.968,#N/A,#N/A,"Dinwiddie County, VA","Dinwiddie, VA",37.073498,-77.635492,VA,#REF!,1,1,13649,51864,82.65837915,19.78266494,40.51228978,26.94954722,12.75549806,-149.00,-0.53,364.00,282.00,25.00,18.00,39.00,15832205,566
LAUCN510570000000003,51057,51057,b51057,4.38,5.3,#N/A,#N/A,#N/A,#N/A,5.38,#N/A,#N/A,"Essex County, VA","Essex, VA",37.93948,-76.941871,VA,#REF!,6,4,5701,44427,70.80564188,23.26064382,37.31827622,24.76635514,14.65472482,-70.00,-0.63,301.00,207.00,23.00,20.00,51.00,4221871,378
LAUCN510590000000003,51059,51059,b51059,2.496,3.7,#N/A,#N/A,#N/A,#N/A,3.496,#N/A,#N/A,"Fairfax County, VA","Fairfax, VA",38.831056,-77.275385,VA,#REF!,1,1,620573,110658,176.3614631,8.195926156,13.37869329,19.78209048,58.64329008,"13,242.00",1.22,"28,871.00","19,398.00","2,541.00","1,309.00","5,623.00",1309316069,1205
LAUCN510610000000003,51061,51061,b51061,2.9,4,#N/A,#N/A,#N/A,#N/A,3.9,#N/A,#N/A,"Fauquier County, VA","Fauquier, VA",38.744098,-77.821484,VA,#REF!,1,1,36150,82705,131.8112997,8.58642251,27.5815096,30.58284949,33.2492184,"1,907.00",2.92,"1,766.00","1,407.00",129.00,68.00,162.00,37794477,578
LAUCN510730000000003,51073,51073,b51073,2.96,4.1,#N/A,#N/A,#N/A,#N/A,3.96,#N/A,#N/A,"Gloucester County, VA","Gloucester, VA",37.403541,-76.523505,VA,#REF!,1,1,19565,58824,93.75089649,10.68260702,32.95796375,34.38102584,21.97840339,205.00,0.56,880.00,676.00,52.00,33.00,119.00,24008904,650
LAUCN510750000000003,51075,51075,b51075,2.828,4.5,#N/A,#N/A,#N/A,#N/A,3.828,#N/A,#N/A,"Goochland County, VA","Goochland, VA",37.718814,-77.917626,VA,#REF!,1,1,10373,76843,122.4687226,12.61008057,25.27637249,24.10217975,38.01136719,160.00,0.74,594.00,441.00,48.00,16.00,89.00,16211249,746
LAUCN510790000000003,51079,51079,b51079,2.688,3.9,#N/A,#N/A,#N/A,#N/A,3.688,#N/A,#N/A,"Greene County, VA","Greene, VA",38.297981,-78.470163,VA,#REF!,3,2,9798,59730,95.19483624,16.87455311,33.90800032,25.16088027,24.0565663,277.00,1.50,314.00,252.00,21.00,6.00,35.00,9192899,498
LAUCN510850000000003,51085,51085,b51085,2.936,4.2,#N/A,#N/A,#N/A,#N/A,3.936,#N/A,#N/A,"Hanover County, VA","Hanover, VA",37.760165,-77.490992,VA,#REF!,1,1,54991,77316,123.2225675,7.941477602,27.64530441,28.95404567,35.45917232,"1,732.00",1.73,"2,994.00","2,158.00",300.00,126.00,410.00,44582070,446
LAUCN510870000000003,51087,51087,b51087,3.18,4.7,#N/A,#N/A,#N/A,#N/A,4.18,#N/A,#N/A,"Henrico County, VA","Henrico, VA",37.43752,-77.300333,VA,#REF!,1,1,170635,60050,95.70483704,9.893206412,23.01958277,27.39740949,39.68980133,"9,071.00",2.96,"8,608.00","5,119.00",792.00,430.00,"2,267.00",212395585,691
LAUCN510930000000003,51093,51093,b51093,3.256,4.9,#N/A,#N/A,#N/A,#N/A,4.256,#N/A,#N/A,"Isle of Wight County, VA","Isle of Wight, VA",36.901418,-76.707569,VA,#REF!,1,1,18892,62495,99.60156188,13.91530164,28.69756292,31.86576109,25.52137435,806.00,2.29,640.00,485.00,44.00,35.00,76.00,22409334,635
LAUCN510950000000003,51095,51095,b51095,2.796,4.6,#N/A,#N/A,#N/A,#N/A,3.796,#N/A,#N/A,"James City County, VA","James City, VA",37.324837,-76.777888,VA,#REF!,1,1,32627,75806,120.8160013,6.529976854,21.94752258,25.74302042,45.77948014,"4,656.00",6.91,"1,626.00","1,083.00",126.00,82.00,335.00,41111833,611
LAUCN510970000000003,51097,51097,b51097,4.008,5.1,#N/A,#N/A,#N/A,#N/A,5.008,#N/A,#N/A,"King and Queen County, VA","King and Queen, VA",37.714372,-76.901855,VA,#REF!,8,4,3666,44697,71.23595506,18.50687623,41.29666012,26.05108055,14.1453831,215.00,3.10,99.00,82.00,7.00,2.00,8.00,5714286,821
LAUCN511010000000003,51101,51101,b51101,3.204,4.5,#N/A,#N/A,#N/A,#N/A,4.204,#N/A,#N/A,"King William County, VA","King William, VA",37.70826,-77.091054,VA,#REF!,1,1,8708,61183,97.51055861,10.63281825,40.34216336,29.78292862,19.24208977,4.00,0.03,317.00,250.00,15.00,15.00,37.00,7278413,455
LAUCN511050000000003,51105,51105,b51105,4.72,7.4,#N/A,#N/A,#N/A,#N/A,5.72,#N/A,#N/A,"Lee County, VA","Lee, VA",36.701721,-83.130112,VA,#REF!,8,7,10235,32092,51.14670492,25.80872392,33.02628014,29.48252506,11.68247088,-577.00,-2.26,279.00,197.00,30.00,16.00,36.00,10252298,401
LAUCN511070000000003,51107,51107,b51107,2.428,3.7,#N/A,#N/A,#N/A,#N/A,3.428,#N/A,#N/A,"Loudoun County, VA","Loudoun, VA",39.0812,-77.638898,VA,#REF!,1,1,181625,117680,187.5527931,6.20174863,14.18542037,21.7290396,57.8837914,"33,419.00",10.70,"8,191.00","5,768.00",682.00,332.00,"1,409.00",474918666,1507
LAUCN511150000000003,51115,51115,b51115,3.04,4.3,#N/A,#N/A,#N/A,#N/A,4.04,#N/A,#N/A,"Mathews County, VA","Mathews, VA",37.425348,-76.268808,VA,#REF!,1,1,4248,55128,87.86038728,11.20289855,34.49275362,27.14492754,27.15942029,72.00,0.80,177.00,152.00,9.00,5.00,11.00,2213634,247
LAUCN511310000000003,51131,51131,b51131,4.728,5.4,#N/A,#N/A,#N/A,#N/A,5.728,#N/A,#N/A,"Northampton County, VA","Northampton, VA",37.302775,-75.924018,VA,#REF!,8,4,6366,36211,57.71137142,21.89452911,35.23736432,22.68391624,20.18419033,-101.00,-0.82,319.00,229.00,23.00,12.00,55.00,17095990,1380
LAUCN511450000000003,51145,51145,b51145,2.836,4.2,#N/A,#N/A,#N/A,#N/A,3.836,#N/A,#N/A,"Powhatan County, VA","Powhatan, VA",37.549404,-77.912855,VA,#REF!,1,1,13562,74820,119.2445613,14.08324184,28.39604751,29.95308913,27.56762152,188.00,0.67,628.00,556.00,33.00,13.00,26.00,11296161,402
LAUCN511470000000003,51147,51147,b51147,5.028,7.4,#N/A,#N/A,#N/A,#N/A,6.028,#N/A,#N/A,"Prince Edward County, VA","Prince Edward, VA",37.224881,-78.432957,VA,#REF!,6,4,10393,39077,62.27906606,20.52866192,35.94275436,21.60006256,21.92852115,-298.00,-1.28,536.00,350.00,53.00,45.00,88.00,26995983,1155
LAUCN511490000000003,51149,51149,b51149,3.716,5.9,#N/A,#N/A,#N/A,#N/A,4.716,#N/A,#N/A,"Prince George County, VA","Prince George, VA",37.187325,-77.220993,VA,#REF!,1,1,14539,65625,104.5900072,14.0498192,34.3752511,33.66813982,17.90678988,"1,136.00",3.18,440.00,291.00,32.00,25.00,92.00,31054353,869
LAUCN511530000000003,51153,51153,b51153,2.868,4.3,#N/A,#N/A,#N/A,#N/A,3.868,#N/A,#N/A,"Prince William County, VA","Prince William, VA",38.701119,-77.479579,VA,#REF!,1,1,225329,93671,149.2883895,10.92327499,21.1913374,29.76849156,38.11689605,"21,872.00",5.44,"7,037.00","4,765.00",582.00,295.00,"1,395.00",142005349,350
LAUCN511570000000003,51157,51157,b51157,2.988,4.1,#N/A,#N/A,#N/A,#N/A,3.988,#N/A,#N/A,"Rappahannock County, VA","Rappahannock, VA",38.684522,-78.168824,VA,#REF!,1,1,4005,60945,97.13124552,17.04566127,25.92323085,24.6134255,32.41768237,-86.00,-1.15,182.00,169.00,7.00,2.00,4.00,1495305,203
LAUCN511610000000003,51161,51161,b51161,2.844,4.2,#N/A,#N/A,#N/A,#N/A,3.844,#N/A,#N/A,"Roanoke County, VA","Roanoke, VA",37.330792,-80.191237,VA,#REF!,2,2,49754,57663,91.90054984,9.127896424,26.64861758,31.12559743,33.09788856,"1,765.00",1.91,"2,061.00","1,404.00",164.00,95.00,398.00,67720107,733
LAUCN511630000000003,51163,51163,b51163,3.496,5.5,#N/A,#N/A,#N/A,#N/A,4.496,#N/A,#N/A,"Rockbridge County, VA","Rockbridge, VA",37.814517,-79.447754,VA,#REF!,6,6,11015,46882,74.71830425,15.60150376,38.32161048,22.89594955,23.18093621,245.00,1.10,428.00,313.00,25.00,24.00,66.00,9718388,436
LAUCN511650000000003,51165,51165,b51165,2.896,4.4,#N/A,#N/A,#N/A,#N/A,3.896,#N/A,#N/A,"Rockingham County, VA","Rockingham, VA",38.507585,-78.885321,VA,#REF!,3,2,41339,55636,88.67001355,19.27399611,36.95371388,20.37283365,23.39945636,"1,085.00",1.42,"1,382.00","1,103.00",98.00,47.00,134.00,31160905,408
LAUCN511670000000003,51167,51167,b51167,5.44,7.1,#N/A,#N/A,#N/A,#N/A,6.44,#N/A,#N/A,"Russell County, VA","Russell, VA",36.93342,-82.095934,VA,#REF!,7,9,11949,36107,57.54562117,25.32414325,37.09451969,27.0737938,10.50754326,-485.00,-1.68,476.00,329.00,37.00,26.00,84.00,14281803,495
LAUCN511730000000003,51173,51173,b51173,5.744,7.1,#N/A,#N/A,#N/A,#N/A,6.744,#N/A,#N/A,"Smyth County, VA","Smyth, VA",36.842318,-81.539786,VA,#REF!,7,11,13753,37475,59.72587457,20.13569709,38.98883782,25.87437076,15.00109433,-142.00,-0.44,536.00,367.00,46.00,27.00,96.00,27289695,848
LAUCN511770000000003,51177,51177,b51177,2.948,4.9,#N/A,#N/A,#N/A,#N/A,3.948,#N/A,#N/A,"Spotsylvania County, VA","Spotsylvania, VA",38.182431,-77.657226,VA,#REF!,1,1,64304,73112,116.5224321,10.91618421,31.97329099,28.94226802,28.16825679,"3,097.00",2.52,"2,256.00","1,530.00",168.00,105.00,453.00,115342648,939
LAUCN511790000000003,51179,51179,b51179,3.004,4.7,#N/A,#N/A,#N/A,#N/A,4.004,#N/A,#N/A,"Stafford County, VA","Stafford, VA",38.415386,-77.454872,VA,#REF!,1,1,65186,93014,148.2412941,7.407633737,24.8249227,31.58724533,36.18019824,"6,483.00",5.03,"2,054.00","1,431.00",170.00,76.00,377.00,63970043,493
LAUCN511810000000003,51181,51181,b51181,3.916,6,#N/A,#N/A,#N/A,#N/A,4.916,#N/A,#N/A,"Surry County, VA","Surry, VA",37.119761,-76.880172,VA,#REF!,8,4,3759,50554,80.57056339,22.16619605,33.82412263,27.32956837,16.68011295,-233.00,-3.30,78.00,61.00,5.00,5.00,7.00,1742479,247
LAUCN511830000000003,51183,51183,b51183,5.12,6.9,#N/A,#N/A,#N/A,#N/A,6.12,#N/A,#N/A,"Sussex County, VA","Sussex, VA",36.926645,-77.259732,VA,#REF!,1,1,4383,38948,62.07347199,29.99233213,38.01073502,21.68912258,10.30781027,-207.00,-1.71,181.00,123.00,10.00,22.00,26.00,6126542,508
LAUCN511850000000003,51185,51185,b51185,4.444,8.2,#N/A,#N/A,#N/A,#N/A,5.444,#N/A,#N/A,"Tazewell County, VA","Tazewell, VA",37.125395,-81.562924,VA,#REF!,5,8,18194,38336,61.09809547,22.97695481,34.75388481,29.36633479,12.90282559,-836.00,-1.85,"1,107.00",761.00,93.00,58.00,195.00,29983651,665
LAUCN511870000000003,51187,51187,b51187,3.684,4.8,#N/A,#N/A,#N/A,#N/A,4.684,#N/A,#N/A,"Warren County, VA","Warren, VA",38.908221,-78.207594,VA,#REF!,1,1,20130,56291,89.71392143,16.00854203,37.26266744,26.19685498,20.53193555,"1,082.00",2.89,792.00,587.00,56.00,26.00,123.00,16303206,433
LAUCN511950000000003,51195,51195,b51195,4.256,9.1,#N/A,#N/A,#N/A,#N/A,5.256,#N/A,#N/A,"Wise County, VA","Wise, VA",36.974561,-82.62156,VA,#REF!,7,8,17265,37490,59.74978086,27.09264276,32.73987544,27.08912424,13.07835755,"-1,357.00",-3.27,815.00,508.00,68.00,61.00,178.00,94659793,2283
LAUCN511990000000003,51199,51199,b51199,2.876,4.5,#N/A,#N/A,#N/A,#N/A,3.876,#N/A,#N/A,"York County, VA","York, VA",37.220914,-76.395533,VA,#REF!,1,1,31925,78327,124.8338513,5.091852573,20.5898024,32.32330252,41.99504251,196.00,0.30,"1,425.00",979.00,136.00,50.00,260.00,52611958,804
LAUCN515500000000003,51550,51550,b51550,3.416,4.9,#N/A,#N/A,#N/A,#N/A,4.416,#N/A,#N/A,"Chesapeake city, VA","Chesapeake city, VA",36.679376,-76.301788,VA,#REF!,1,1,114662,66516,106.0100406,9.816737935,25.88949976,35.04038553,29.25337677,"6,114.00",2.75,"5,272.00","3,300.00",539.00,257.00,"1,176.00",152142626,682
LAUCN515700000000003,51570,51570,b51570,3.816,5.1,#N/A,#N/A,#N/A,#N/A,4.816,#N/A,#N/A,"Colonial Heights city, VA","Colonial Heights city, VA",37.261685,-77.396804,VA,#REF!,1,1,8565,49715,79.23340505,11.27475453,36.96954568,31.26144117,20.49425861,77.00,0.44,693.00,376.00,51.00,30.00,236.00,21238683,1222
LAUCN516200000000003,51620,51620,b51620,5.392,7.4,#N/A,#N/A,#N/A,#N/A,6.392,#N/A,#N/A,"Franklin city, VA","Franklin city, VA",36.684014,-76.941396,VA,#REF!,6,4,3673,36326,57.89465296,20.58512513,26.15438844,32.65773705,20.60274938,-198.00,-2.31,287.00,168.00,29.00,26.00,64.00,10974091,1273
LAUCN516500000000003,51650,51650,b51650,4.124,6.3,#N/A,#N/A,#N/A,#N/A,5.124,#N/A,#N/A,"Hampton city, VA","Hampton city, VA",37.04803,-76.297149,VA,#REF!,1,1,66480,45293,72.18583154,10.7458061,27.57977947,39.22275371,22.45166072,"-3,328.00",-2.42,"2,373.00","1,357.00",246.00,139.00,631.00,167952856,1223
LAUCN516600000000003,51660,51660,b51660,3.512,6.1,#N/A,#N/A,#N/A,#N/A,4.512,#N/A,#N/A,"Harrisonburg city, VA","Harrisonburg city, VA",38.436255,-78.873303,VA,#REF!,3,2,23798,37588,59.9059686,18.4553528,25.39654487,21.00030928,35.14779305,"1,952.00",3.99,"1,576.00",973.00,171.00,90.00,342.00,82103907,1674
LAUCN516700000000003,51670,51670,b51670,5.284,8,#N/A,#N/A,#N/A,#N/A,6.284,#N/A,#N/A,"Hopewell city, VA","Hopewell city, VA",37.29101,-77.298944,VA,#REF!,1,1,9917,39440,62.85759821,23.24700791,38.3934005,28.19663263,10.16295896,-810.00,-3.59,459.00,304.00,35.00,23.00,97.00,24842476,1097
LAUCN516780000000003,51678,51678,b51678,5.468,8.5,#N/A,#N/A,#N/A,#N/A,6.468,#N/A,#N/A,"Lexington city, VA","Lexington city, VA",37.782332,-79.44432,VA,#REF!,6,6,2295,41521,66.17419715,21.65439584,19.87873538,16.80381117,41.6630576,143.00,2.03,306.00,227.00,26.00,8.00,45.00,23902209,3392
LAUCN516800000000003,51680,51680,b51680,4.24,6.3,#N/A,#N/A,#N/A,#N/A,5.24,#N/A,#N/A,"Lynchburg city, VA","Lynchburg city, VA",37.399016,-79.195458,VA,#REF!,2,2,35784,39918,63.61941191,14.03104172,26.08565301,28.66400683,31.21929845,"1,983.00",2.62,"2,162.00","1,314.00",229.00,136.00,483.00,120631452,1594
LAUCN517000000000003,51700,51700,b51700,4.076,5.6,#N/A,#N/A,#N/A,#N/A,5.076,#N/A,#N/A,"Newport News city, VA","Newport News city, VA",37.076166,-76.521968,VA,#REF!,1,1,90750,47421,75.57733684,10.83442821,28.8535981,36.44307671,23.86889698,"-4,457.00",-2.46,"3,702.00","2,203.00",374.00,216.00,909.00,237710350,1315
LAUCN517100000000003,51710,51710,b51710,4.66,6,#N/A,#N/A,#N/A,#N/A,5.66,#N/A,#N/A,"Norfolk city, VA","Norfolk city, VA",36.923015,-76.244641,VA,#REF!,1,1,113035,42949,68.4500757,13.98782834,27.02821115,33.64253099,25.34142952,"-5,061.00",-2.08,"5,558.00","2,953.00",589.00,365.00,"1,651.00",392586178,1615
LAUCN517300000000003,51730,51730,b51730,6.752,10.3,#N/A,#N/A,#N/A,#N/A,7.752,#N/A,#N/A,"Petersburg city, VA","Petersburg city, VA",37.20473,-77.392368,VA,#REF!,1,1,13720,32623,51.99298749,26.29152976,34.47882439,24.36108069,14.86856517,-886.00,-2.73,724.00,476.00,72.00,38.00,138.00,39931474,1228
LAUCN517350000000003,51735,51735,b51735,2.644,4,#N/A,#N/A,#N/A,#N/A,3.644,#N/A,#N/A,"Poquoson city, VA","Poquoson city, VA",37.12836,-76.303534,VA,#REF!,1,1,6373,82815,131.9866125,7.290415566,23.66082152,31.86404036,37.18472256,-86.00,-0.71,205.00,166.00,10.00,5.00,24.00,3224823,266
LAUCN517400000000003,51740,51740,b51740,4.652,6.6,#N/A,#N/A,#N/A,#N/A,5.652,#N/A,#N/A,"Portsmouth city, VA","Portsmouth city, VA",36.8597,-76.356313,VA,#REF!,1,1,45800,43041,68.59670093,17.57466178,29.97731995,32.94158697,19.5064313,"-1,644.00",-1.72,"1,735.00","1,120.00",190.00,88.00,337.00,100816466,1054
LAUCN517750000000003,51775,51775,b51775,3.288,4.7,#N/A,#N/A,#N/A,#N/A,4.288,#N/A,#N/A,"Salem city, VA","Salem city, VA",37.285333,-80.055241,VA,#REF!,2,2,12842,47837,76.24033788,11.09306383,29.95247549,28.12368405,30.83077663,593.00,2.39,965.00,590.00,108.00,59.00,208.00,39021680,1570
LAUCN518000000000003,51800,51800,b51800,3.656,5.2,#N/A,#N/A,#N/A,#N/A,4.656,#N/A,#N/A,"Suffolk city, VA","Suffolk city, VA",36.697157,-76.634781,VA,#REF!,1,1,41935,59468,94.77727309,12.81135597,29.09877252,31.8677769,26.22209461,581.00,0.69,"1,450.00",940.00,146.00,61.00,303.00,33211226,391
LAUCN518100000000003,51810,51810,b51810,3.168,4.5,#N/A,#N/A,#N/A,#N/A,4.168,#N/A,#N/A,"Virginia Beach city, VA","Virginia Beach city, VA",36.779404,-76.023603,VA,#REF!,1,1,229348,62509,99.62387441,6.417044187,23.08290762,37.57762692,32.92242127,"-1,066.00",-0.24,"10,658.00","7,323.00",989.00,455.00,"1,891.00",247181788,563
LAUCN530310000000003,53031,53031,b53031,5.596,6.8,#N/A,#N/A,#N/A,#N/A,6.596,#N/A,#N/A,"Jefferson County, WA","Jefferson, WA",47.805346,-123.527136,WA,#REF!,6,6,12057,47709,81.65015146,5.44748706,22.19903156,35.83235933,36.52112206,963.00,3.22,999.00,863.00,56.00,33.00,47.00,22630317,756
LAUCN540050000000003,54005,54005,b54005,4.32,10.4,#N/A,#N/A,#N/A,#N/A,5.32,#N/A,#N/A,"Boone County, WV","Boone, WV",38.022814,-81.713539,WV,#REF!,3,2,8685,38098,92.48209734,24.4813278,46.37367775,20.65922506,8.485769388,-765.00,-3.11,318.00,190.00,29.00,28.00,71.00,13045998,531
LAUCN540070000000003,54007,54007,b54007,5.328,9.7,#N/A,#N/A,#N/A,#N/A,6.328,#N/A,#N/A,"Braxton County, WV","Braxton, WV",38.699342,-80.731657,WV,#REF!,8,7,5497,35296,85.68030101,22.17645368,47.40875563,19.26429735,11.15049334,-50.00,-0.34,269.00,183.00,21.00,12.00,53.00,18695806,1287
LAUCN540150000000003,54015,54015,b54015,6.644,11.4,#N/A,#N/A,#N/A,#N/A,7.644,#N/A,#N/A,"Clay County, WV","Clay, WV",38.459826,-81.081866,WV,#REF!,3,2,3576,32640,79.23291662,27.29638702,43.52418861,21.11145132,8.067973056,-504.00,-5.37,104.00,68.00,13.00,6.00,17.00,9361042,1000
LAUCN540190000000003,54019,54019,b54019,5.068,9,#N/A,#N/A,#N/A,#N/A,6.068,#N/A,#N/A,"Fayette County, WV","Fayette, WV",38.030933,-81.086051,WV,#REF!,3,2,17734,33720,81.854594,21.05935684,43.22918251,24.13520338,11.57625726,-397.00,-0.86,795.00,528.00,97.00,38.00,132.00,50476140,1096
LAUCN540210000000003,54021,54021,b54021,3.932,8,#N/A,#N/A,#N/A,#N/A,4.932,#N/A,#N/A,"Gilmer County, WV","Gilmer, WV",38.915867,-80.849413,WV,#REF!,7,10,2817,35344,85.79682,23.32630896,34.88409791,25.14183822,16.6477549,-49.00,-0.56,134.00,91.00,17.00,5.00,21.00,5388588,619
LAUCN540310000000003,54031,54031,b54031,4.368,8.3,#N/A,#N/A,#N/A,#N/A,5.368,#N/A,#N/A,"Hardy County, WV","Hardy, WV",39.011361,-78.841729,WV,#REF!,6,6,5690,36053,87.51790266,20.6872086,47.69916886,22.13663085,9.476991689,-103.00,-0.73,245.00,166.00,27.00,17.00,35.00,46946939,3338
LAUCN540390000000003,54039,54039,b54039,3.772,6.6,#N/A,#N/A,#N/A,#N/A,4.772,#N/A,#N/A,"Kanawha County, WV","Kanawha, WV",38.328068,-81.523516,WV,#REF!,3,2,91698,45858,111.3193349,12.1120721,37.55142089,25.38193183,24.95457519,"-1,594.00",-0.83,"5,291.00","3,125.00",525.00,309.00,"1,332.00",1441714276,7471
LAUCN540430000000003,54043,54043,b54043,5.068,10.8,#N/A,#N/A,#N/A,#N/A,6.068,#N/A,#N/A,"Lincoln County, WV","Lincoln, WV",38.17177,-82.077623,WV,#REF!,2,2,7682,35524,86.23376623,26.1032802,42.77433803,22.96798841,8.154393361,-121.00,-0.56,213.00,149.00,17.00,15.00,32.00,13422186,618
LAUCN540450000000003,54045,54045,b54045,4.732,12.6,#N/A,#N/A,#N/A,#N/A,5.732,#N/A,#N/A,"Logan County, WV","Logan, WV",37.830591,-81.940853,WV,#REF!,6,5,12921,35773,86.83820852,23.61824337,42.4283921,24.79363993,9.1597246,"-1,034.00",-2.81,695.00,444.00,85.00,30.00,136.00,18040806,491
LAUCN540470000000003,54047,54047,b54047,6.692,14.2,#N/A,#N/A,#N/A,#N/A,7.692,#N/A,#N/A,"McDowell County, WV","McDowell, WV",37.382663,-81.658205,WV,#REF!,7,10,6674,25205,61.18460978,36.94502835,42.11096248,15.11561246,5.828396713,"-1,274.00",-5.76,280.00,184.00,47.00,19.00,30.00,22220470,1007
LAUCN540490000000003,54049,54049,b54049,3.92,8.3,#N/A,#N/A,#N/A,#N/A,4.92,#N/A,#N/A,"Marion County, WV","Marion, WV",39.505839,-80.243402,WV,#REF!,4,5,26749,41705,101.2380143,12.41503958,41.13484204,26.17671766,20.27340071,449.00,0.80,"1,263.00",823.00,157.00,76.00,207.00,91335328,1617
LAUCN540510000000003,54051,54051,b54051,5.2,9.6,#N/A,#N/A,#N/A,#N/A,6.2,#N/A,#N/A,"Marshall County, WV","Marshall, WV",39.854426,-80.671794,WV,#REF!,3,2,14350,41583,100.9418619,11.92718672,47.06677366,26.81505258,14.19098703,-338.00,-1.02,486.00,319.00,38.00,42.00,87.00,22327302,675
LAUCN540550000000003,54055,54055,b54055,4.12,8.4,#N/A,#N/A,#N/A,#N/A,5.12,#N/A,#N/A,"Mercer County, WV","Mercer, WV",37.403448,-81.106456,WV,#REF!,4,5,23751,34320,83.31108144,19.05066618,38.40071303,24.85773705,17.69088374,102.00,0.16,"1,324.00",818.00,111.00,94.00,301.00,51773185,831
